[{"name":"Alabama A & M University","city":"Normal","state":"AL","country":"US","lat":34.78337,"lon":-86.5685},{"name":"University of Alabama at Birmingham","city":"Birmingham","state":"AL","country":"US","lat":33.5057,"lon":-86.79935},{"name":"Amridge University","city":"Montgomery","state":"AL","country":"US","lat":32.36261,"lon":-86.17401},{"name":"University of Alabama in Huntsville","city":"Huntsville","state":"AL","country":"US","lat":34.72456,"lon":-86.64045},{"name":"Alabama State University","city":"Montgomery","state":"AL","country":"US","lat":32.36432,"lon":-86.29568},{"name":"University of Alabama System Office","city":"Tuscaloosa","state":"AL","country":"US","lat":33.20701,"lon":-87.52959},{"name":"The University of Alabama","city":"Tuscaloosa","state":"AL","country":"US","lat":33.21187,"lon":-87.54598},{"name":"Athens State University","city":"Athens","state":"AL","country":"US","lat":34.80679,"lon":-86.9647},{"name":"Auburn University at Montgomery","city":"Montgomery","state":"AL","country":"US","lat":32.36736,"lon":-86.17754},{"name":"Auburn University","city":"Auburn","state":"AL","country":"US","lat":32.59938,"lon":-85.48826},{"name":"South University-Montgomery","city":"Montgomery","state":"AL","country":"US","lat":32.34268,"lon":-86.21649},{"name":"Faulkner University","city":"Montgomery","state":"AL","country":"US","lat":32.38418,"lon":-86.21641},{"name":"Herzing University-Birmingham","city":"Birmingham","state":"AL","country":"US","lat":33.46847,"lon":-86.83246},{"name":"Huntingdon College","city":"Montgomery","state":"AL","country":"US","lat":32.35103,"lon":-86.28437},{"name":"Heritage Christian University","city":"Florence","state":"AL","country":"US","lat":34.85615,"lon":-87.66305},{"name":"Jacksonville State University","city":"Jacksonville","state":"AL","country":"US","lat":33.82294,"lon":-85.76532},{"name":"University of West Alabama","city":"Livingston","state":"AL","country":"US","lat":32.58813,"lon":-88.18633},{"name":"Miles College","city":"Fairfield","state":"AL","country":"US","lat":33.48244,"lon":-86.90875},{"name":"University of Mobile","city":"Mobile","state":"AL","country":"US","lat":30.79325,"lon":-88.12893},{"name":"University of Montevallo","city":"Montevallo","state":"AL","country":"US","lat":33.10625,"lon":-86.8651},{"name":"University of North Alabama","city":"Florence","state":"AL","country":"US","lat":34.80731,"lon":-87.68041},{"name":"Oakwood University","city":"Huntsville","state":"AL","country":"US","lat":34.75634,"lon":-86.6527},{"name":"Samford University","city":"Birmingham","state":"AL","country":"US","lat":33.46413,"lon":-86.7918},{"name":"Selma University","city":"Selma","state":"AL","country":"US","lat":32.42039,"lon":-87.03239},{"name":"Spring Hill College","city":"Mobile","state":"AL","country":"US","lat":30.69475,"lon":-88.1382},{"name":"Stillman College","city":"Tuscaloosa","state":"AL","country":"US","lat":33.20001,"lon":-87.58528},{"name":"Talladega College","city":"Talladega","state":"AL","country":"US","lat":33.43347,"lon":-86.1127},{"name":"Troy University","city":"Troy","state":"AL","country":"US","lat":31.79958,"lon":-85.95802},{"name":"Tuskegee University","city":"Tuskegee","state":"AL","country":"US","lat":32.4309,"lon":-85.70849},{"name":"United States Sports University","city":"Daphne","state":"AL","country":"US","lat":30.63933,"lon":-87.91163},{"name":"University of Alaska Anchorage","city":"Anchorage","state":"AK","country":"US","lat":61.19016,"lon":-149.82619},{"name":"Alaska Bible College","city":"Palmer","state":"AK","country":"US","lat":61.59855,"lon":-149.11197},{"name":"University of Alaska Fairbanks","city":"Fairbanks","state":"AK","country":"US","lat":64.85756,"lon":-147.82315},{"name":"University of Alaska Southeast","city":"Juneau","state":"AK","country":"US","lat":58.38485,"lon":-134.63825},{"name":"Alaska Pacific University","city":"Anchorage","state":"AK","country":"US","lat":61.19097,"lon":-149.80417},{"name":"Charter College","city":"Anchorage","state":"AK","country":"US","lat":61.19633,"lon":-149.83927},{"name":"University of Alaska System of Higher Education","city":"Fairbanks","state":"AK","country":"US","lat":64.85752,"lon":-147.84897},{"name":"Brookline College-Phoenix","city":"Phoenix","state":"AZ","country":"US","lat":33.5661,"lon":-112.11247},{"name":"Cochise County Community College District","city":"Sierra Vista","state":"AZ","country":"US","lat":31.5646,"lon":-110.24695},{"name":"Eastern Arizona College","city":"Thatcher","state":"AZ","country":"US","lat":32.84366,"lon":-109.76234},{"name":"The School of Architecture","city":"Scottsdale","state":"AZ","country":"US","lat":33.52427,"lon":-111.91679},{"name":"Glendale Community College","city":"Glendale","state":"AZ","country":"US","lat":33.57023,"lon":-112.19074},{"name":"Grand Canyon University","city":"Phoenix","state":"AZ","country":"US","lat":33.51323,"lon":-112.12993},{"name":"Maricopa Community College System Office","city":"Tempe","state":"AZ","country":"US","lat":33.41291,"lon":-111.97579},{"name":"GateWay Community College","city":"Phoenix","state":"AZ","country":"US","lat":33.44969,"lon":-111.99708},{"name":"Mesa Community College","city":"Mesa","state":"AZ","country":"US","lat":33.39032,"lon":-111.87126},{"name":"Dine College","city":"Tsaile","state":"AZ","country":"US","lat":36.29333,"lon":-109.21684},{"name":"Northland Pioneer College","city":"Holbrook","state":"AZ","country":"US","lat":34.93031,"lon":-110.1422},{"name":"Phoenix College","city":"Phoenix","state":"AZ","country":"US","lat":33.48136,"lon":-112.08829},{"name":"Pima Medical Institute-Tucson","city":"Tucson","state":"AZ","country":"US","lat":32.24807,"lon":-110.87878},{"name":"Prescott College","city":"Prescott","state":"AZ","country":"US","lat":34.5452,"lon":-112.47719},{"name":"Rio Salado College","city":"Tempe","state":"AZ","country":"US","lat":33.41331,"lon":-111.97417},{"name":"Scottsdale Community College","city":"Scottsdale","state":"AZ","country":"US","lat":33.51135,"lon":-111.88519},{"name":"South Mountain Community College","city":"Phoenix","state":"AZ","country":"US","lat":33.38241,"lon":-112.03263},{"name":"Arizona Christian University","city":"Glendale","state":"AZ","country":"US","lat":33.62295,"lon":-112.18178},{"name":"Yavapai College","city":"Prescott","state":"AZ","country":"US","lat":34.54749,"lon":-112.4534},{"name":"University of Arkansas at Little Rock","city":"Little Rock","state":"AR","country":"US","lat":34.72325,"lon":-92.33978},{"name":"University of Arkansas for Medical Sciences","city":"Little Rock","state":"AR","country":"US","lat":34.75015,"lon":-92.32235},{"name":"Arkansas Baptist College","city":"Little Rock","state":"AR","country":"US","lat":34.73475,"lon":-92.29055},{"name":"Lyon College","city":"Batesville","state":"AR","country":"US","lat":35.77762,"lon":-91.62535},{"name":"University of Arkansas at Pine Bluff","city":"Pine Bluff","state":"AR","country":"US","lat":34.24403,"lon":-92.01868},{"name":"Arkansas State University","city":"Jonesboro","state":"AR","country":"US","lat":35.84239,"lon":-90.67999},{"name":"Arkansas Tech University","city":"Russellville","state":"AR","country":"US","lat":35.29609,"lon":-93.13717},{"name":"University of Arkansas at Monticello","city":"Monticello","state":"AR","country":"US","lat":33.59091,"lon":-91.81115},{"name":"University of Central Arkansas","city":"Conway","state":"AR","country":"US","lat":35.07794,"lon":-92.45767},{"name":"Central Baptist College","city":"Conway","state":"AR","country":"US","lat":35.08384,"lon":-92.44502},{"name":"Crowley's Ridge College","city":"Paragould","state":"AR","country":"US","lat":36.06484,"lon":-90.5844},{"name":"Harding University","city":"Searcy","state":"AR","country":"US","lat":35.24739,"lon":-91.72614},{"name":"Henderson State University","city":"Arkadelphia","state":"AR","country":"US","lat":34.12815,"lon":-93.0597},{"name":"Hendrix College","city":"Conway","state":"AR","country":"US","lat":35.10157,"lon":-92.44326},{"name":"John Brown University","city":"Siloam Springs","state":"AR","country":"US","lat":36.18981,"lon":-94.56028},{"name":"Ouachita Baptist University","city":"Arkadelphia","state":"AR","country":"US","lat":34.12609,"lon":-93.05247},{"name":"University of the Ozarks","city":"Clarksville","state":"AR","country":"US","lat":35.47628,"lon":-93.46722},{"name":"Philander Smith University","city":"Little Rock","state":"AR","country":"US","lat":34.73713,"lon":-92.28302},{"name":"Williams Baptist University","city":"Walnut Ridge","state":"AR","country":"US","lat":36.12568,"lon":-90.94028},{"name":"Southern Arkansas University Main Campus","city":"Magnolia","state":"AR","country":"US","lat":33.29162,"lon":-93.23592},{"name":"University of Arkansas System Office","city":"Little Rock","state":"AR","country":"US","lat":34.776,"lon":-92.34358},{"name":"University of Arkansas-Fort Smith","city":"Fort Smith","state":"AR","country":"US","lat":35.38418,"lon":-94.37373},{"name":"Academy of Art University","city":"San Francisco","state":"CA","country":"US","lat":37.78794,"lon":-122.40058},{"name":"Academy of Chinese Culture and Health Sciences","city":"Oakland","state":"CA","country":"US","lat":37.80597,"lon":-122.26984},{"name":"Berkeley School of Theology","city":"Berkeley","state":"CA","country":"US","lat":37.86525,"lon":-122.25615},{"name":"American Film Institute Conservatory","city":"Los Angeles","state":"CA","country":"US","lat":34.10767,"lon":-118.31002},{"name":"Antelope Valley Community College District","city":"Lancaster","state":"CA","country":"US","lat":34.67621,"lon":-118.18617},{"name":"Art Center College of Design","city":"Pasadena","state":"CA","country":"US","lat":34.16903,"lon":-118.1851},{"name":"Azusa Pacific University","city":"Azusa","state":"CA","country":"US","lat":34.13005,"lon":-117.88837},{"name":"Bakersfield College","city":"Bakersfield","state":"CA","country":"US","lat":35.40911,"lon":-118.97375},{"name":"Bethesda University","city":"Anaheim","state":"CA","country":"US","lat":33.8423,"lon":-117.94132},{"name":"Biola University","city":"La Mirada","state":"CA","country":"US","lat":33.9062,"lon":-118.01437},{"name":"Bryan University","city":"Tempe","state":"AZ","country":"US","lat":33.43778,"lon":-111.9442},{"name":"California Institute of Integral Studies","city":"San Francisco","state":"CA","country":"US","lat":37.77492,"lon":-122.4161},{"name":"California Baptist University","city":"Riverside","state":"CA","country":"US","lat":33.92932,"lon":-117.42562},{"name":"California College of the Arts","city":"San Francisco","state":"CA","country":"US","lat":37.76749,"lon":-122.39945},{"name":"University of California College of the Law-San Francisco","city":"San Francisco","state":"CA","country":"US","lat":37.78114,"lon":-122.4157},{"name":"California Lutheran University","city":"Thousand Oaks","state":"CA","country":"US","lat":34.22457,"lon":-118.87892},{"name":"Alliant International University-San Diego","city":"San Diego","state":"CA","country":"US","lat":32.89706,"lon":-117.0944},{"name":"California State University-Bakersfield","city":"Bakersfield","state":"CA","country":"US","lat":35.35001,"lon":-119.10471},{"name":"California State University-Stanislaus","city":"Turlock","state":"CA","country":"US","lat":37.52577,"lon":-120.85251},{"name":"California State University-Chancellors Office","city":"Long Beach","state":"CA","country":"US","lat":33.76434,"lon":-118.20126},{"name":"California State University-San Bernardino","city":"San Bernardino","state":"CA","country":"US","lat":34.18262,"lon":-117.3238},{"name":"California State Polytechnic University-Pomona","city":"Pomona","state":"CA","country":"US","lat":34.05791,"lon":-117.82148},{"name":"California State University-Chico","city":"Chico","state":"CA","country":"US","lat":39.72971,"lon":-121.84486},{"name":"California State University-Dominguez Hills","city":"Carson","state":"CA","country":"US","lat":33.86477,"lon":-118.25592},{"name":"California State University-Fresno","city":"Fresno","state":"CA","country":"US","lat":36.81115,"lon":-119.74457},{"name":"California State University-East Bay","city":"Hayward","state":"CA","country":"US","lat":37.65769,"lon":-122.05414},{"name":"California State University-Long Beach","city":"Long Beach","state":"CA","country":"US","lat":33.78282,"lon":-118.11204},{"name":"California State University-Los Angeles","city":"Los Angeles","state":"CA","country":"US","lat":34.06693,"lon":-118.16897},{"name":"California State University-Sacramento","city":"Sacramento","state":"CA","country":"US","lat":38.55942,"lon":-121.42355},{"name":"University of California-San Francisco","city":"San Francisco","state":"CA","country":"US","lat":37.76374,"lon":-122.45849},{"name":"Sofia University","city":"Palo Alto","state":"CA","country":"US","lat":37.43033,"lon":-122.10866},{"name":"Haven University","city":"Garden Grove","state":"CA","country":"US","lat":33.77739,"lon":-117.93941},{"name":"California Institute of the Arts","city":"Valencia","state":"CA","country":"US","lat":34.39327,"lon":-118.56684},{"name":"California State University Maritime Academy","city":"Vallejo","state":"CA","country":"US","lat":38.06906,"lon":-122.23155},{"name":"California Western School of Law","city":"San Diego","state":"CA","country":"US","lat":32.72219,"lon":-117.16242},{"name":"Casa Loma College-Los Angeles","city":"Sherman Oaks","state":"CA","country":"US","lat":34.1551,"lon":-118.46655},{"name":"Charles R Drew University of Medicine and Science","city":"Los Angeles","state":"CA","country":"US","lat":33.92566,"lon":-118.24279},{"name":"Concordia University-Irvine","city":"Irvine","state":"CA","country":"US","lat":33.65366,"lon":-117.8123},{"name":"San Diego Christian College","city":"Santee","state":"CA","country":"US","lat":32.84345,"lon":-116.97809},{"name":"Church Divinity School of the Pacific","city":"Berkeley","state":"CA","country":"US","lat":37.87618,"lon":-122.26112},{"name":"Claremont Graduate University","city":"Claremont","state":"CA","country":"US","lat":34.10359,"lon":-117.7137},{"name":"Claremont McKenna College","city":"Claremont","state":"CA","country":"US","lat":34.10215,"lon":-117.71119},{"name":"University of Silicon Valley","city":"San Jose","state":"CA","country":"US","lat":37.41405,"lon":-121.94087},{"name":"Western University of Health Sciences","city":"Pomona","state":"CA","country":"US","lat":34.05809,"lon":-117.74773},{"name":"California College of ASU","city":"Los Angeles","state":"CA","country":"US","lat":34.03936,"lon":-118.25968},{"name":"Crafton Hills College","city":"Yucaipa","state":"CA","country":"US","lat":34.03918,"lon":-117.10117},{"name":"Cypress College","city":"Cypress","state":"CA","country":"US","lat":33.82833,"lon":-118.02514},{"name":"Design Institute of San Diego","city":"San Diego","state":"CA","country":"US","lat":32.88093,"lon":-117.16737},{"name":"DHARMA REALM BUDDHIST UNIVERSITY","city":"Ukiah","state":"CA","country":"US","lat":39.13453,"lon":-123.15817},{"name":"Dominican University of California","city":"San Rafael","state":"CA","country":"US","lat":37.98128,"lon":-122.51205},{"name":"Dominican School of Philosophy & Theology","city":"Berkeley","state":"CA","country":"US","lat":37.8811,"lon":-122.26461},{"name":"Emperor's College of Traditional Oriental Medicine","city":"Santa Monica","state":"CA","country":"US","lat":34.03044,"lon":-118.48512},{"name":"FIDM-Fashion Institute of Design & Merchandising","city":"Los Angeles","state":"CA","country":"US","lat":34.04421,"lon":-118.25993},{"name":"Feather River Community College District","city":"Quincy","state":"CA","country":"US","lat":39.9531,"lon":-120.97307},{"name":"Fielding Graduate University","city":"Santa Barbara","state":"CA","country":"US","lat":34.42941,"lon":-119.71716},{"name":"Five Branches University","city":"Santa Cruz","state":"CA","country":"US","lat":36.96435,"lon":-121.99824},{"name":"Foothill College","city":"Los Altos Hills","state":"CA","country":"US","lat":37.36165,"lon":-122.12796},{"name":"Franciscan School of Theology","city":"San Diego","state":"CA","country":"US","lat":32.77082,"lon":-117.19207},{"name":"Fresno City College","city":"Fresno","state":"CA","country":"US","lat":36.76816,"lon":-119.7961},{"name":"Fresno Pacific University","city":"Fresno","state":"CA","country":"US","lat":36.72683,"lon":-119.7352},{"name":"Foothill-De Anza Community College District","city":"Los Altos Hills","state":"CA","country":"US","lat":37.36165,"lon":-122.12796},{"name":"Fuller Theological Seminary","city":"Pasadena","state":"CA","country":"US","lat":34.14778,"lon":-118.14026},{"name":"Glendale Career College","city":"Glendale","state":"CA","country":"US","lat":34.14977,"lon":-118.25472},{"name":"Golden Gate University","city":"San Francisco","state":"CA","country":"US","lat":37.78937,"lon":-122.39897},{"name":"Graduate Theological Union","city":"Berkeley","state":"CA","country":"US","lat":37.87554,"lon":-122.26185},{"name":"Pacifica Graduate Institute","city":"Carpinteria","state":"CA","country":"US","lat":34.42088,"lon":-119.58041},{"name":"Humphreys University-Stockton and Modesto Campuses","city":"Stockton","state":"CA","country":"US","lat":38.01149,"lon":-121.31692},{"name":"Interior Designers Institute","city":"Newport Beach","state":"CA","country":"US","lat":33.64139,"lon":-117.86572},{"name":"American Jewish University","city":"Los Angeles","state":"CA","country":"US","lat":34.12815,"lon":-118.47171},{"name":"Life Pacific University","city":"San Dimas","state":"CA","country":"US","lat":34.09871,"lon":-117.82939},{"name":"University of La Verne","city":"La Verne","state":"CA","country":"US","lat":34.10086,"lon":-117.77326},{"name":"Laguna College of Art and Design","city":"Laguna Beach","state":"CA","country":"US","lat":33.56145,"lon":-117.77256},{"name":"Latin American Bible Institute","city":"La Puente","state":"CA","country":"US","lat":34.03099,"lon":-117.9896},{"name":"Life Chiropractic College West","city":"Hayward","state":"CA","country":"US","lat":37.6381,"lon":-122.11762},{"name":"Lincoln University","city":"Oakland","state":"CA","country":"US","lat":37.80479,"lon":-122.26975},{"name":"Southern California Seminary","city":"El Cajon","state":"CA","country":"US","lat":32.79961,"lon":-116.90546},{"name":"La Sierra University","city":"Riverside","state":"CA","country":"US","lat":33.9107,"lon":-117.50005},{"name":"Loma Linda University","city":"Loma Linda","state":"CA","country":"US","lat":34.05124,"lon":-117.2606},{"name":"Southern California University of Health Sciences","city":"Whittier","state":"CA","country":"US","lat":33.92297,"lon":-117.9834},{"name":"Los Angeles Community College District Office","city":"Los Angeles","state":"CA","country":"US","lat":34.04897,"lon":-118.25805},{"name":"Los Angeles Valley College","city":"Valley Glen","state":"CA","country":"US","lat":34.17516,"lon":-118.42173},{"name":"The Master's University and Seminary","city":"Santa Clarita","state":"CA","country":"US","lat":34.38175,"lon":-118.51819},{"name":"Los Angeles Mission College","city":"Sylmar","state":"CA","country":"US","lat":34.31467,"lon":-118.4195},{"name":"Menlo College","city":"Atherton","state":"CA","country":"US","lat":37.45347,"lon":-122.1908},{"name":"Northeastern University Oakland","city":"Oakland","state":"CA","country":"US","lat":37.78142,"lon":-122.18229},{"name":"MiraCosta College","city":"Oceanside","state":"CA","country":"US","lat":33.19048,"lon":-117.30261},{"name":"Modesto Junior College","city":"Modesto","state":"CA","country":"US","lat":37.65106,"lon":-121.00979},{"name":"Middlebury Institute of International Studies at Monterey","city":"Monterey","state":"CA","country":"US","lat":36.59974,"lon":-121.89732},{"name":"Moorpark College","city":"Moorpark","state":"CA","country":"US","lat":34.30115,"lon":-118.83453},{"name":"Mount Saint Mary's University","city":"Los Angeles","state":"CA","country":"US","lat":34.08532,"lon":-118.48288},{"name":"Musicians Institute","city":"Hollywood","state":"CA","country":"US","lat":34.10126,"lon":-118.33758},{"name":"National University","city":"San Diego","state":"CA","country":"US","lat":32.8293,"lon":-117.1273},{"name":"Naval Postgraduate School","city":"Monterey","state":"CA","country":"US","lat":36.59716,"lon":-121.87425},{"name":"Newschool of Architecture and Design","city":"San Diego","state":"CA","country":"US","lat":32.71331,"lon":-117.15331},{"name":"North Orange County Community College District","city":"Anaheim","state":"CA","country":"US","lat":33.85012,"lon":-117.94539},{"name":"San Francisco Bay University","city":"Fremont","state":"CA","country":"US","lat":37.48506,"lon":-121.9279},{"name":"Notre Dame de Namur University","city":"Belmont","state":"CA","country":"US","lat":37.51711,"lon":-122.28479},{"name":"Otis College of Art and Design","city":"Los Angeles","state":"CA","country":"US","lat":33.95661,"lon":-118.41661},{"name":"Hope International University","city":"Fullerton","state":"CA","country":"US","lat":33.87616,"lon":-117.88573},{"name":"Palo Alto University","city":"Palo Alto","state":"CA","country":"US","lat":37.38222,"lon":-122.18744},{"name":"Pacific Oaks College","city":"Pasadena","state":"CA","country":"US","lat":34.15338,"lon":-118.15132},{"name":"Pacific School of Religion","city":"Berkeley","state":"CA","country":"US","lat":37.87669,"lon":-122.26315},{"name":"Pacific States University","city":"Los Angeles","state":"CA","country":"US","lat":34.06132,"lon":-118.29841},{"name":"Pacific Union College","city":"Angwin","state":"CA","country":"US","lat":38.57059,"lon":-122.44031},{"name":"University of the Pacific","city":"Stockton","state":"CA","country":"US","lat":37.98142,"lon":-121.3123},{"name":"Pepperdine University","city":"Malibu","state":"CA","country":"US","lat":34.03779,"lon":-118.70708},{"name":"Pitzer College","city":"Claremont","state":"CA","country":"US","lat":34.10411,"lon":-117.70668},{"name":"Point Loma Nazarene University","city":"San Diego","state":"CA","country":"US","lat":32.71839,"lon":-117.25026},{"name":"Pomona College","city":"Claremont","state":"CA","country":"US","lat":34.09903,"lon":-117.71456},{"name":"Santa Ana College","city":"Santa Ana","state":"CA","country":"US","lat":33.75931,"lon":-117.88756},{"name":"RAND School of Public Policy","city":"Santa Monica","state":"CA","country":"US","lat":34.00973,"lon":-118.49066},{"name":"University of Redlands","city":"Redlands","state":"CA","country":"US","lat":34.06422,"lon":-117.16322},{"name":"Rio Hondo College","city":"Whittier","state":"CA","country":"US","lat":34.01982,"lon":-118.03351},{"name":"Dongguk University Los Angeles","city":"Los Angeles","state":"CA","country":"US","lat":34.06597,"lon":-118.28952},{"name":"Samuel Merritt University","city":"Oakland","state":"CA","country":"US","lat":37.82029,"lon":-122.26633},{"name":"San Diego Community College District-District Office","city":"San Diego","state":"CA","country":"US","lat":32.77627,"lon":-117.1205},{"name":"San Diego Mesa College","city":"San Diego","state":"CA","country":"US","lat":32.80383,"lon":-117.16917},{"name":"San Diego State University","city":"San Diego","state":"CA","country":"US","lat":32.77525,"lon":-117.07123},{"name":"San Francisco Conservatory of Music","city":"San Francisco","state":"CA","country":"US","lat":37.77554,"lon":-122.42029},{"name":"San Francisco State University","city":"San Francisco","state":"CA","country":"US","lat":37.72122,"lon":-122.4768},{"name":"San Joaquin College of Law","city":"Clovis","state":"CA","country":"US","lat":36.82448,"lon":-119.69766},{"name":"San Joaquin Valley College-Visalia","city":"Visalia","state":"CA","country":"US","lat":36.32805,"lon":-119.38498},{"name":"William Jessup University","city":"Rocklin","state":"CA","country":"US","lat":38.81973,"lon":-121.29231},{"name":"San Mateo County Community College District Office","city":"San Mateo","state":"CA","country":"US","lat":37.53131,"lon":-122.33763},{"name":"Santa Monica College","city":"Santa Monica","state":"CA","country":"US","lat":34.01702,"lon":-118.46976},{"name":"Saybrook University","city":"Pasadena","state":"CA","country":"US","lat":34.1531,"lon":-118.15215},{"name":"Shasta Bible College and Graduate School","city":"Redding","state":"CA","country":"US","lat":40.56603,"lon":-122.31442},{"name":"Shasta College","city":"Redding","state":"CA","country":"US","lat":40.62573,"lon":-122.31798},{"name":"Trinity Law School","city":"Santa Ana","state":"CA","country":"US","lat":33.76607,"lon":-117.85206},{"name":"Simpson University","city":"Redding","state":"CA","country":"US","lat":40.61334,"lon":-122.33298},{"name":"Skyline College","city":"San Bruno","state":"CA","country":"US","lat":37.63042,"lon":-122.46734},{"name":"Saint Mary's College of California","city":"Moraga","state":"CA","country":"US","lat":37.84073,"lon":-122.10903},{"name":"Solano Community College","city":"Fairfield","state":"CA","country":"US","lat":38.23588,"lon":-122.12237},{"name":"Sonoma State University","city":"Rohnert Park","state":"CA","country":"US","lat":38.34027,"lon":-122.67707},{"name":"South Baylo University","city":"Anaheim","state":"CA","country":"US","lat":33.84829,"lon":-117.95842},{"name":"Vanguard University of Southern California","city":"Costa Mesa","state":"CA","country":"US","lat":33.66269,"lon":-117.90091},{"name":"Starr King School for the Ministry","city":"Oakland","state":"CA","country":"US","lat":37.80353,"lon":-122.27072},{"name":"State Center Community College District","city":"Fresno","state":"CA","country":"US","lat":36.73564,"lon":-119.79232},{"name":"Marshall B Ketchum University","city":"Fullerton","state":"CA","country":"US","lat":33.88935,"lon":-117.88623},{"name":"Southern California Institute of Architecture","city":"Los Angeles","state":"CA","country":"US","lat":34.04422,"lon":-118.2328},{"name":"Southwestern Law School","city":"Los Angeles","state":"CA","country":"US","lat":34.06156,"lon":-118.28838},{"name":"Taft College","city":"Taft","state":"CA","country":"US","lat":35.14934,"lon":-119.45975},{"name":"Claremont School of Theology","city":"Los Angeles","state":"CA","country":"US","lat":34.06492,"lon":-118.4325},{"name":"Thomas Aquinas College","city":"Santa Paula","state":"CA","country":"US","lat":34.42901,"lon":-119.08714},{"name":"Epic Bible College & Graduate School","city":"Sacramento","state":"CA","country":"US","lat":38.64515,"lon":-121.36264},{"name":"University of California-System Administration Central Office","city":"Oakland","state":"CA","country":"US","lat":37.80222,"lon":-122.27134},{"name":"The Colleges of Law at Ventura","city":"Ventura","state":"CA","country":"US","lat":34.25747,"lon":-119.23299},{"name":"Walden University","city":"Minneapolis","state":"MN","country":"US","lat":44.98125,"lon":-93.26574},{"name":"West Los Angeles College","city":"Culver City","state":"CA","country":"US","lat":34.00451,"lon":-118.38666},{"name":"Carrington College-Sacramento","city":"Sacramento","state":"CA","country":"US","lat":38.5561,"lon":-121.37138},{"name":"Westminster Theological Seminary in California","city":"Escondido","state":"CA","country":"US","lat":33.12145,"lon":-117.04637},{"name":"Westmont College","city":"Santa Barbara","state":"CA","country":"US","lat":34.45015,"lon":-119.66252},{"name":"Whittier College","city":"Whittier","state":"CA","country":"US","lat":33.97877,"lon":-118.0323},{"name":"Woodbury University","city":"Burbank","state":"CA","country":"US","lat":34.20801,"lon":-118.34115},{"name":"The Wright Institute","city":"Berkeley","state":"CA","country":"US","lat":37.86822,"lon":-122.25317},{"name":"Thomas Jefferson School of Law","city":"San Diego","state":"CA","country":"US","lat":32.7176,"lon":-117.15786},{"name":"Yeshiva Ohr Elchonon Chabad West Coast Talmudical Seminary","city":"Los Angeles","state":"CA","country":"US","lat":34.08546,"lon":-118.34661},{"name":"Yosemite Community College District Office","city":"Modesto","state":"CA","country":"US","lat":37.66094,"lon":-121.03861},{"name":"Adams State University","city":"Alamosa","state":"CO","country":"US","lat":37.47364,"lon":-105.87964},{"name":"Aims Community College","city":"Greeley","state":"CO","country":"US","lat":40.40956,"lon":-104.76341},{"name":"Arapahoe Community College","city":"Littleton","state":"CO","country":"US","lat":39.60751,"lon":-105.01863},{"name":"University of Colorado Colorado Springs","city":"Colorado Springs","state":"CO","country":"US","lat":38.89274,"lon":-104.8003},{"name":"Colorado Christian University","city":"Lakewood","state":"CO","country":"US","lat":39.71388,"lon":-105.09456},{"name":"Concorde Career College-Aurora","city":"Aurora","state":"CO","country":"US","lat":39.7187,"lon":-104.86709},{"name":"Colorado Mountain College","city":"Glenwood Springs","state":"CO","country":"US","lat":39.54636,"lon":-107.32444},{"name":"Colorado Northwestern Community College","city":"Rangely","state":"CO","country":"US","lat":40.08111,"lon":-108.79005},{"name":"Colorado Technical University-Colorado Springs","city":"Colorado Springs","state":"CO","country":"US","lat":38.89507,"lon":-104.85716},{"name":"Community College of Denver","city":"Denver","state":"CO","country":"US","lat":39.74141,"lon":-105.00104},{"name":"Denver Seminary","city":"Littleton","state":"CO","country":"US","lat":39.60059,"lon":-105.02236},{"name":"Fort Lewis College","city":"Durango","state":"CO","country":"US","lat":37.27594,"lon":-107.86742},{"name":"Front Range Community College","city":"Westminster","state":"CO","country":"US","lat":39.90145,"lon":-105.03807},{"name":"Iliff School of Theology","city":"Denver","state":"CO","country":"US","lat":39.67593,"lon":-104.96066},{"name":"Colorado Mesa University","city":"Grand Junction","state":"CO","country":"US","lat":39.08064,"lon":-108.55327},{"name":"Metropolitan State University of Denver","city":"Denver","state":"CO","country":"US","lat":39.7442,"lon":-105.00504},{"name":"Morgan Community College","city":"Fort  Morgan","state":"CO","country":"US","lat":40.25879,"lon":-103.77182},{"name":"Naropa University","city":"Boulder","state":"CO","country":"US","lat":40.01423,"lon":-105.26699},{"name":"Nazarene Bible College","city":"Colorado Springs","state":"CO","country":"US","lat":38.86235,"lon":-104.75806},{"name":"Pikes Peak State College","city":"Colorado Springs","state":"CO","country":"US","lat":38.76429,"lon":-104.78726},{"name":"Pueblo Community College","city":"Pueblo","state":"CO","country":"US","lat":38.26212,"lon":-104.63626},{"name":"Red Rocks Community College","city":"Lakewood","state":"CO","country":"US","lat":39.72028,"lon":-105.15009},{"name":"Regis University","city":"Denver","state":"CO","country":"US","lat":39.78818,"lon":-105.03076},{"name":"Rocky Mountain College of Art and Design","city":"Lakewood","state":"CO","country":"US","lat":39.74332,"lon":-105.06991},{"name":"Colorado State University Pueblo","city":"Pueblo","state":"CO","country":"US","lat":38.30859,"lon":-104.57903},{"name":"Trinidad State College","city":"Trinidad","state":"CO","country":"US","lat":37.17206,"lon":-104.51345},{"name":"University of Colorado System Office","city":"Denver","state":"CO","country":"US","lat":39.74521,"lon":-104.98328},{"name":"United States Air Force Academy","city":"USAF Academy","state":"CO","country":"US","lat":39.01096,"lon":-104.89136},{"name":"Western Colorado University","city":"Gunnison","state":"CO","country":"US","lat":38.54994,"lon":-106.91913},{"name":"Albertus Magnus College","city":"New Haven","state":"CT","country":"US","lat":41.33252,"lon":-72.92385},{"name":"Bais Binyomin Academy","city":"Monsey","state":"NY","country":"US","lat":41.12301,"lon":-74.0788},{"name":"University of Bridgeport","city":"Bridgeport","state":"CT","country":"US","lat":41.16474,"lon":-73.19017},{"name":"Central Connecticut State University","city":"New Britain","state":"CT","country":"US","lat":41.6925,"lon":-72.76599},{"name":"Charter Oak State College","city":"New Britain","state":"CT","country":"US","lat":41.66685,"lon":-72.78124},{"name":"Connecticut College","city":"New London","state":"CT","country":"US","lat":41.37983,"lon":-72.10732},{"name":"Goodwin University","city":"East Hartford","state":"CT","country":"US","lat":41.74298,"lon":-72.64032},{"name":"Eastern Connecticut State University","city":"Willimantic","state":"CT","country":"US","lat":41.72167,"lon":-72.21875},{"name":"Fairfield University","city":"Fairfield","state":"CT","country":"US","lat":41.15767,"lon":-73.2559},{"name":"Hartford International University for Religion and Peace","city":"Hartford","state":"CT","country":"US","lat":41.76986,"lon":-72.70777},{"name":"University of Hartford","city":"West Hartford","state":"CT","country":"US","lat":41.79859,"lon":-72.71521},{"name":"Holy Apostles College and Seminary","city":"Cromwell","state":"CT","country":"US","lat":41.60682,"lon":-72.64785},{"name":"Mitchell College","city":"New London","state":"CT","country":"US","lat":41.32801,"lon":-72.09523},{"name":"University of New Haven","city":"West Haven","state":"CT","country":"US","lat":41.29131,"lon":-72.96147},{"name":"Paier College","city":"Bridgeport","state":"CT","country":"US","lat":41.16345,"lon":-73.19473},{"name":"Post University","city":"Waterbury","state":"CT","country":"US","lat":41.53555,"lon":-73.0815},{"name":"Quinnipiac University","city":"Hamden","state":"CT","country":"US","lat":41.41891,"lon":-72.89412},{"name":"Sacred Heart University","city":"Fairfield","state":"CT","country":"US","lat":41.22089,"lon":-73.24333},{"name":"University of Saint Joseph","city":"West Hartford","state":"CT","country":"US","lat":41.78104,"lon":-72.72965},{"name":"Southern Connecticut State University","city":"New Haven","state":"CT","country":"US","lat":41.33322,"lon":-72.9479},{"name":"United States Coast Guard Academy","city":"New London","state":"CT","country":"US","lat":41.37582,"lon":-72.10158},{"name":"Western Connecticut State University","city":"Danbury","state":"CT","country":"US","lat":41.40037,"lon":-73.44426},{"name":"Delaware Technical Community College-Central Office","city":"Dover","state":"DE","country":"US","lat":39.20109,"lon":-75.5582},{"name":"Delaware Technical Community College-Terry","city":"Dover","state":"DE","country":"US","lat":39.19837,"lon":-75.56012},{"name":"Delaware State University","city":"Dover","state":"DE","country":"US","lat":39.18717,"lon":-75.54053},{"name":"Goldey-Beacom College","city":"Wilmington","state":"DE","country":"US","lat":39.7415,"lon":-75.68962},{"name":"Wilmington University","city":"New Castle","state":"DE","country":"US","lat":39.6823,"lon":-75.587},{"name":"American University","city":"Washington","state":"DC","country":"US","lat":38.93601,"lon":-77.08888},{"name":"The Catholic University of America","city":"Washington","state":"DC","country":"US","lat":38.93365,"lon":-76.99791},{"name":"University of the District of Columbia","city":"Washington","state":"DC","country":"US","lat":38.94382,"lon":-77.06625},{"name":"Pontifical Faculty of the Immaculate Conception at the Dominican House of Studies","city":"Washington","state":"DC","country":"US","lat":38.93165,"lon":-76.99872},{"name":"Gallaudet University","city":"Washington","state":"DC","country":"US","lat":38.90737,"lon":-76.99367},{"name":"Howard University","city":"Washington","state":"DC","country":"US","lat":38.92239,"lon":-77.01897},{"name":"Strayer University-District of Columbia","city":"Washington","state":"DC","country":"US","lat":38.90488,"lon":-77.03413},{"name":"Trinity Washington University","city":"Washington","state":"DC","country":"US","lat":38.9274,"lon":-77.00426},{"name":"Wesley Theological Seminary","city":"Washington","state":"DC","country":"US","lat":38.93961,"lon":-77.08996},{"name":"Baptist University of Florida","city":"Graceville","state":"FL","country":"US","lat":30.96271,"lon":-85.50393},{"name":"Barry University","city":"Miami","state":"FL","country":"US","lat":25.87891,"lon":-80.19893},{"name":"Bethune-Cookman University","city":"Daytona Beach","state":"FL","country":"US","lat":29.20719,"lon":-81.03295},{"name":"Lynn University","city":"Boca Raton","state":"FL","country":"US","lat":26.38599,"lon":-80.12281},{"name":"Eastern Florida State College","city":"Melbourne","state":"FL","country":"US","lat":28.17,"lon":-80.67078},{"name":"Broward College","city":"Fort Lauderdale","state":"FL","country":"US","lat":26.11942,"lon":-80.14183},{"name":"Albizu University-Miami","city":"Miami","state":"FL","country":"US","lat":25.79518,"lon":-80.35494},{"name":"College of Central Florida","city":"Ocala","state":"FL","country":"US","lat":29.16608,"lon":-82.17569},{"name":"University of Central Florida","city":"Orlando","state":"FL","country":"US","lat":28.60216,"lon":-81.20089},{"name":"Chipola College","city":"Marianna","state":"FL","country":"US","lat":30.78923,"lon":-85.23139},{"name":"Daytona State College","city":"Daytona Beach","state":"FL","country":"US","lat":29.20278,"lon":-81.04951},{"name":"South University-West Palm Beach","city":"Royal Palm Beach","state":"FL","country":"US","lat":26.69215,"lon":-80.20022},{"name":"Eckerd College","city":"Saint Petersburg","state":"FL","country":"US","lat":27.7158,"lon":-82.68704},{"name":"Florida SouthWestern State College","city":"Fort Myers","state":"FL","country":"US","lat":26.5524,"lon":-81.8871},{"name":"Edward Waters University","city":"Jacksonville","state":"FL","country":"US","lat":30.34479,"lon":-81.68488},{"name":"Embry-Riddle Aeronautical University-Daytona Beach","city":"Daytona Beach","state":"FL","country":"US","lat":29.1899,"lon":-81.04837},{"name":"Florida Agricultural and Mechanical University","city":"Tallahassee","state":"FL","country":"US","lat":30.4285,"lon":-84.29023},{"name":"Florida Atlantic University","city":"Boca Raton","state":"FL","country":"US","lat":26.37242,"lon":-80.10298},{"name":"Florida State College at Jacksonville","city":"Jacksonville","state":"FL","country":"US","lat":30.33492,"lon":-81.6599},{"name":"Flagler College","city":"Saint Augustine","state":"FL","country":"US","lat":29.89273,"lon":-81.31489},{"name":"Florida College","city":"Temple Terrace","state":"FL","country":"US","lat":28.03494,"lon":-82.38329},{"name":"AdventHealth University","city":"Orlando","state":"FL","country":"US","lat":28.57614,"lon":-81.36769},{"name":"Florida International University","city":"Miami","state":"FL","country":"US","lat":25.75732,"lon":-80.37393},{"name":"The College of the Florida Keys","city":"Key West","state":"FL","country":"US","lat":24.58275,"lon":-81.74446},{"name":"Florida Memorial University","city":"Miami Gardens","state":"FL","country":"US","lat":25.91828,"lon":-80.27075},{"name":"Florida Southern College","city":"Lakeland","state":"FL","country":"US","lat":28.03244,"lon":-81.9482},{"name":"Florida State University","city":"Tallahassee","state":"FL","country":"US","lat":30.44315,"lon":-84.29506},{"name":"Full Sail University","city":"Winter Park","state":"FL","country":"US","lat":28.59655,"lon":-81.30129},{"name":"Gulf Coast State College","city":"Panama City","state":"FL","country":"US","lat":30.18554,"lon":-85.72792},{"name":"Hillsborough Community College","city":"Tampa","state":"FL","country":"US","lat":27.93489,"lon":-82.45625},{"name":"Hobe Sound Bible College","city":"Hobe Sound","state":"FL","country":"US","lat":27.0663,"lon":-80.13184},{"name":"Indian River State College","city":"Fort Pierce","state":"FL","country":"US","lat":27.42416,"lon":-80.35868},{"name":"Jacksonville University","city":"Jacksonville","state":"FL","country":"US","lat":30.35323,"lon":-81.60458},{"name":"Keiser University-Ft Lauderdale","city":"Fort Lauderdale","state":"FL","country":"US","lat":26.18587,"lon":-80.16396},{"name":"Florida Gateway College","city":"Lake City","state":"FL","country":"US","lat":30.1753,"lon":-82.5679},{"name":"Lake-Sumter State College","city":"Leesburg","state":"FL","country":"US","lat":28.82865,"lon":-81.79719},{"name":"Luther Rice College & Seminary","city":"Lithonia","state":"GA","country":"US","lat":33.69813,"lon":-84.12318},{"name":"State College of Florida-Manatee-Sarasota","city":"Bradenton","state":"FL","country":"US","lat":27.43804,"lon":-82.59089},{"name":"Miami Dade College","city":"Miami","state":"FL","country":"US","lat":25.77772,"lon":-80.19086},{"name":"University of Miami","city":"Coral Gables","state":"FL","country":"US","lat":25.72126,"lon":-80.27866},{"name":"North Florida College","city":"Madison","state":"FL","country":"US","lat":30.47384,"lon":-83.42073},{"name":"University of North Florida","city":"Jacksonville","state":"FL","country":"US","lat":30.27194,"lon":-81.50914},{"name":"Nova Southeastern University","city":"Fort Lauderdale","state":"FL","country":"US","lat":26.08229,"lon":-80.24989},{"name":"Northwest Florida State College","city":"Niceville","state":"FL","country":"US","lat":30.54002,"lon":-86.47456},{"name":"Palm Beach Atlantic University","city":"West Palm Beach","state":"FL","country":"US","lat":26.7044,"lon":-80.05247},{"name":"Palm Beach State College","city":"Lake Worth","state":"FL","country":"US","lat":26.61256,"lon":-80.08653},{"name":"Pasco-Hernando State College","city":"New Port Richey","state":"FL","country":"US","lat":28.2751,"lon":-82.64673},{"name":"Pensacola State College","city":"Pensacola","state":"FL","country":"US","lat":30.47927,"lon":-87.20027},{"name":"Polk State College","city":"Winter Haven","state":"FL","country":"US","lat":28.03241,"lon":-81.71187},{"name":"Saint Vincent de Paul Regional Seminary","city":"Boynton Beach","state":"FL","country":"US","lat":26.51654,"lon":-80.12519},{"name":"Ringling College of Art and Design","city":"Sarasota","state":"FL","country":"US","lat":27.36093,"lon":-82.5478},{"name":"Rollins College","city":"Winter Park","state":"FL","country":"US","lat":28.59279,"lon":-81.34924},{"name":"Saint Leo University","city":"Saint Leo","state":"FL","country":"US","lat":28.33678,"lon":-82.2578},{"name":"St Petersburg College","city":"St. Petersburg","state":"FL","country":"US","lat":27.77326,"lon":-82.63659},{"name":"Santa Fe College","city":"Gainesville","state":"FL","country":"US","lat":29.68104,"lon":-82.43314},{"name":"Seminole State College of Florida","city":"Sanford","state":"FL","country":"US","lat":28.74548,"lon":-81.308},{"name":"St. John Vianney College Seminary","city":"Miami","state":"FL","country":"US","lat":25.74258,"lon":-80.33741},{"name":"Saint Johns River State College","city":"Palatka","state":"FL","country":"US","lat":29.64752,"lon":-81.68139},{"name":"South Florida State College","city":"Avon Park","state":"FL","country":"US","lat":27.56974,"lon":-81.50867},{"name":"St. Thomas University","city":"Miami Gardens","state":"FL","country":"US","lat":25.92207,"lon":-80.25327},{"name":"Stetson University","city":"DeLand","state":"FL","country":"US","lat":29.03548,"lon":-81.30075},{"name":"Southeastern University","city":"Lakeland","state":"FL","country":"US","lat":28.02973,"lon":-81.91838},{"name":"Tallahassee State College","city":"Tallahassee","state":"FL","country":"US","lat":30.44387,"lon":-84.339},{"name":"Talmudic College of Florida","city":"Miami Beach","state":"FL","country":"US","lat":25.812,"lon":-80.13629},{"name":"The University of Tampa","city":"Tampa","state":"FL","country":"US","lat":27.94845,"lon":-82.46483},{"name":"Trinity Baptist College","city":"Jacksonville","state":"FL","country":"US","lat":30.31117,"lon":-81.79626},{"name":"Trinity College of Florida","city":"Trinity","state":"FL","country":"US","lat":28.19473,"lon":-82.67832},{"name":"Valencia College","city":"Orlando","state":"FL","country":"US","lat":28.52078,"lon":-81.46428},{"name":"Warner University","city":"Lake Wales","state":"FL","country":"US","lat":27.82575,"lon":-81.59997},{"name":"Webber International University","city":"Babson Park","state":"FL","country":"US","lat":27.83878,"lon":-81.53231},{"name":"Rasmussen University-Florida","city":"Ocala","state":"FL","country":"US","lat":29.17532,"lon":-82.15319},{"name":"University of West Florida","city":"Pensacola","state":"FL","country":"US","lat":30.54908,"lon":-87.21851},{"name":"Abraham Baldwin Agricultural College","city":"Tifton","state":"GA","country":"US","lat":31.48189,"lon":-83.52828},{"name":"Agnes Scott College","city":"Decatur","state":"GA","country":"US","lat":33.76927,"lon":-84.29546},{"name":"Albany State University","city":"Albany","state":"GA","country":"US","lat":31.56928,"lon":-84.14182},{"name":"Andrew College","city":"Cuthbert","state":"GA","country":"US","lat":31.77232,"lon":-84.79502},{"name":"Point University","city":"West Point","state":"GA","country":"US","lat":32.87912,"lon":-85.18493},{"name":"Atlanta Metropolitan State College","city":"Atlanta","state":"GA","country":"US","lat":33.70893,"lon":-84.40466},{"name":"Atlanta's John Marshall Law School","city":"Atlanta","state":"GA","country":"US","lat":33.76128,"lon":-84.3856},{"name":"Clark Atlanta University","city":"Atlanta","state":"GA","country":"US","lat":33.74763,"lon":-84.41258},{"name":"Berry College","city":"Mount Berry","state":"GA","country":"US","lat":34.29041,"lon":-85.1892},{"name":"Beulah Heights University","city":"Atlanta","state":"GA","country":"US","lat":33.73699,"lon":-84.35768},{"name":"Brenau University","city":"Gainesville","state":"GA","country":"US","lat":34.30312,"lon":-83.82151},{"name":"Brewton-Parker College","city":"Mount Vernon","state":"GA","country":"US","lat":32.18572,"lon":-82.58614},{"name":"College of Coastal Georgia","city":"Brunswick","state":"GA","country":"US","lat":31.18198,"lon":-81.48617},{"name":"Clayton  State University","city":"Morrow","state":"GA","country":"US","lat":33.59408,"lon":-84.32817},{"name":"Columbia Theological Seminary","city":"Decatur","state":"GA","country":"US","lat":33.76429,"lon":-84.28169},{"name":"Columbus State University","city":"Columbus","state":"GA","country":"US","lat":32.50096,"lon":-84.94106},{"name":"Covenant College","city":"Lookout Mountain","state":"GA","country":"US","lat":34.96516,"lon":-85.37507},{"name":"Dalton State College","city":"Dalton","state":"GA","country":"US","lat":34.77422,"lon":-85.00277},{"name":"South University-Savannah","city":"Savannah","state":"GA","country":"US","lat":31.99948,"lon":-81.10553},{"name":"East Georgia State College","city":"Swainsboro","state":"GA","country":"US","lat":32.59494,"lon":-82.30902},{"name":"Emmanuel University","city":"Franklin Springs","state":"GA","country":"US","lat":34.28364,"lon":-83.14822},{"name":"Georgia Highlands College","city":"Rome","state":"GA","country":"US","lat":34.16979,"lon":-85.20736},{"name":"Fort Valley State University","city":"Fort Valley","state":"GA","country":"US","lat":32.5376,"lon":-83.89537},{"name":"Georgia Southwestern State University","city":"Americus","state":"GA","country":"US","lat":32.05466,"lon":-84.21774},{"name":"Georgia Southern University","city":"Statesboro","state":"GA","country":"US","lat":32.42615,"lon":-81.78405},{"name":"Georgia State University","city":"Atlanta","state":"GA","country":"US","lat":33.7527,"lon":-84.38667},{"name":"Gordon State College","city":"Barnesville","state":"GA","country":"US","lat":33.04571,"lon":-84.15451},{"name":"Interdenominational Theological Center","city":"Atlanta","state":"GA","country":"US","lat":33.75234,"lon":-84.40921},{"name":"LaGrange College","city":"Lagrange","state":"GA","country":"US","lat":33.03856,"lon":-85.04311},{"name":"Life University","city":"Marietta","state":"GA","country":"US","lat":33.93278,"lon":-84.51473},{"name":"Herzing University-Atlanta","city":"Atlanta","state":"GA","country":"US","lat":33.75422,"lon":-84.38725},{"name":"Mercer University","city":"Macon","state":"GA","country":"US","lat":32.82913,"lon":-83.64939},{"name":"Morehouse College","city":"Atlanta","state":"GA","country":"US","lat":33.74598,"lon":-84.41492},{"name":"Morehouse School of Medicine","city":"Atlanta","state":"GA","country":"US","lat":33.74289,"lon":-84.41186},{"name":"Morris Brown College","city":"Atlanta","state":"GA","country":"US","lat":33.75371,"lon":-84.40767},{"name":"Oglethorpe University","city":"Atlanta","state":"GA","country":"US","lat":33.87544,"lon":-84.33369},{"name":"Paine College","city":"Augusta","state":"GA","country":"US","lat":33.46954,"lon":-81.99322},{"name":"Piedmont University","city":"Demorest","state":"GA","country":"US","lat":34.56604,"lon":-83.54213},{"name":"Reinhardt University","city":"Waleska","state":"GA","country":"US","lat":34.31976,"lon":-84.55426},{"name":"Savannah College of Art and Design","city":"Savannah","state":"GA","country":"US","lat":32.07296,"lon":-81.09395},{"name":"Savannah State University","city":"Savannah","state":"GA","country":"US","lat":32.02478,"lon":-81.06338},{"name":"Shorter University","city":"Rome","state":"GA","country":"US","lat":34.25754,"lon":-85.19653},{"name":"Spelman College","city":"Atlanta","state":"GA","country":"US","lat":33.74528,"lon":-84.41153},{"name":"Thomas University","city":"Thomasville","state":"GA","country":"US","lat":30.81558,"lon":-83.96359},{"name":"Toccoa Falls College","city":"Toccoa Falls","state":"GA","country":"US","lat":34.59341,"lon":-83.35762},{"name":"Truett McConnell University","city":"Cleveland","state":"GA","country":"US","lat":34.59631,"lon":-83.74891},{"name":"Valdosta State University","city":"Valdosta","state":"GA","country":"US","lat":30.8474,"lon":-83.28928},{"name":"Wesleyan College","city":"Macon","state":"GA","country":"US","lat":32.87604,"lon":-83.71542},{"name":"University of West Georgia","city":"Carrollton","state":"GA","country":"US","lat":33.57362,"lon":-85.09776},{"name":"Young Harris College","city":"Young Harris","state":"GA","country":"US","lat":34.93352,"lon":-83.84587},{"name":"Chaminade University of Honolulu","city":"Honolulu","state":"HI","country":"US","lat":21.28995,"lon":-157.80785},{"name":"University of Hawaii at Hilo","city":"Hilo","state":"HI","country":"US","lat":19.70119,"lon":-155.08085},{"name":"University of Hawaii at Manoa","city":"Honolulu","state":"HI","country":"US","lat":21.2986,"lon":-157.81898},{"name":"Hawaii Pacific University","city":"Honolulu","state":"HI","country":"US","lat":21.31031,"lon":-157.85965},{"name":"University of Hawaii Maui College","city":"Kahului","state":"HI","country":"US","lat":20.88956,"lon":-156.47725},{"name":"University of Hawaii System Office","city":"Honolulu","state":"HI","country":"US","lat":21.29729,"lon":-157.8199},{"name":"University of Hawaii-West Oahu","city":"Kapolei","state":"HI","country":"US","lat":21.35531,"lon":-158.0564},{"name":"Boise Bible College","city":"Boise","state":"ID","country":"US","lat":43.65865,"lon":-116.29132},{"name":"Idaho State University","city":"Pocatello","state":"ID","country":"US","lat":42.86383,"lon":-112.43231},{"name":"University of Idaho","city":"Moscow","state":"ID","country":"US","lat":46.72741,"lon":-117.01417},{"name":"The College of Idaho","city":"Caldwell","state":"ID","country":"US","lat":43.65228,"lon":-116.67799},{"name":"Lewis-Clark State College","city":"Lewiston","state":"ID","country":"US","lat":46.4122,"lon":-117.02487},{"name":"Northwest Nazarene University","city":"Nampa","state":"ID","country":"US","lat":43.56241,"lon":-116.56578},{"name":"Brigham Young University-Idaho","city":"Rexburg","state":"ID","country":"US","lat":43.81841,"lon":-111.78243},{"name":"College of Southern Idaho","city":"Twin Falls","state":"ID","country":"US","lat":42.57984,"lon":-114.4739},{"name":"Adler University","city":"Chicago","state":"IL","country":"US","lat":41.88241,"lon":-87.62916},{"name":"American Islamic College","city":"Chicago","state":"IL","country":"US","lat":41.95497,"lon":-87.6469},{"name":"School of the Art Institute of Chicago","city":"Chicago","state":"IL","country":"US","lat":41.88105,"lon":-87.62576},{"name":"Augustana College","city":"Rock Island","state":"IL","country":"US","lat":41.50236,"lon":-90.55057},{"name":"Aurora University","city":"Aurora","state":"IL","country":"US","lat":41.75363,"lon":-88.34902},{"name":"Bethany Theological Seminary","city":"Richmond","state":"IN","country":"US","lat":39.82624,"lon":-84.91069},{"name":"Blackburn College","city":"Carlinville","state":"IL","country":"US","lat":39.2879,"lon":-89.87024},{"name":"Blessing Rieman College of Nursing and Health Sciences","city":"Quincy","state":"IL","country":"US","lat":39.94964,"lon":-91.3575},{"name":"Bradley University","city":"Peoria","state":"IL","country":"US","lat":40.6969,"lon":-89.61679},{"name":"Catholic Theological Union at Chicago","city":"Chicago","state":"IL","country":"US","lat":41.79789,"lon":-87.58599},{"name":"Midwestern University-Downers Grove","city":"Downers Grove","state":"IL","country":"US","lat":41.82811,"lon":-87.99834},{"name":"The Chicago School at Chicago","city":"Chicago","state":"IL","country":"US","lat":41.88829,"lon":-87.63379},{"name":"Chicago State University","city":"Chicago","state":"IL","country":"US","lat":41.71845,"lon":-87.60938},{"name":"Chicago Theological Seminary","city":"Chicago","state":"IL","country":"US","lat":41.7857,"lon":-87.59118},{"name":"Columbia College Chicago","city":"Chicago","state":"IL","country":"US","lat":41.87426,"lon":-87.62467},{"name":"Concordia University-Chicago","city":"River Forest","state":"IL","country":"US","lat":41.8987,"lon":-87.80948},{"name":"DePaul University","city":"Chicago","state":"IL","country":"US","lat":41.87762,"lon":-87.62724},{"name":"DeVry University-Administrative Office","city":"Lisle","state":"IL","country":"US","lat":41.8072,"lon":-88.11662},{"name":"East-West University","city":"Chicago","state":"IL","country":"US","lat":41.87131,"lon":-87.62479},{"name":"Eastern Illinois University","city":"Charleston","state":"IL","country":"US","lat":39.47984,"lon":-88.17566},{"name":"Elmhurst University","city":"Elmhurst","state":"IL","country":"US","lat":41.89716,"lon":-87.94537},{"name":"Eureka College","city":"Eureka","state":"IL","country":"US","lat":40.71482,"lon":-89.26962},{"name":"Garrett-Evangelical Theological Seminary","city":"Evanston","state":"IL","country":"US","lat":42.05622,"lon":-87.6755},{"name":"Governors State University","city":"University Park","state":"IL","country":"US","lat":41.4491,"lon":-87.71644},{"name":"Greenville University","city":"Greenville","state":"IL","country":"US","lat":38.89416,"lon":-89.40824},{"name":"Hebrew Theological College","city":"Skokie","state":"IL","country":"US","lat":42.0101,"lon":-87.76087},{"name":"Rosalind Franklin University of Medicine and Science","city":"North Chicago","state":"IL","country":"US","lat":42.30007,"lon":-87.85963},{"name":"University of Illinois Chicago","city":"Chicago","state":"IL","country":"US","lat":41.87184,"lon":-87.6505},{"name":"Benedictine University","city":"Lisle","state":"IL","country":"US","lat":41.77757,"lon":-88.09731},{"name":"Illinois College of Optometry","city":"Chicago","state":"IL","country":"US","lat":41.83545,"lon":-87.62302},{"name":"Illinois Wesleyan University","city":"Bloomington","state":"IL","country":"US","lat":40.4899,"lon":-88.99201},{"name":"Illinois College","city":"Jacksonville","state":"IL","country":"US","lat":39.7313,"lon":-90.24617},{"name":"Illinois Institute of Technology","city":"Chicago","state":"IL","country":"US","lat":41.8313,"lon":-87.62732},{"name":"Institute for Clinical Social Work","city":"Chicago","state":"IL","country":"US","lat":41.97241,"lon":-87.66281},{"name":"Judson University","city":"Elgin","state":"IL","country":"US","lat":42.06175,"lon":-88.29134},{"name":"Knox College","city":"Galesburg","state":"IL","country":"US","lat":40.94306,"lon":-90.37317},{"name":"Lake Forest College","city":"Lake Forest","state":"IL","country":"US","lat":42.24957,"lon":-87.82745},{"name":"Lake Forest Graduate School of Management","city":"Lake Forest","state":"IL","country":"US","lat":42.24343,"lon":-87.8932},{"name":"Lakeview College of Nursing","city":"Danville","state":"IL","country":"US","lat":40.13855,"lon":-87.64438},{"name":"Lewis University","city":"Romeoville","state":"IL","country":"US","lat":41.60543,"lon":-88.07903},{"name":"Loyola University Chicago","city":"Chicago","state":"IL","country":"US","lat":42.00077,"lon":-87.65687},{"name":"Lutheran School of Theology at Chicago","city":"Chicago","state":"IL","country":"US","lat":41.79789,"lon":-87.58599},{"name":"Trinity College of Nursing & Health Sciences","city":"Rock Island","state":"IL","country":"US","lat":41.48492,"lon":-90.56886},{"name":"McCormick Theological Seminary","city":"Chicago","state":"IL","country":"US","lat":41.79789,"lon":-87.58599},{"name":"McKendree University","city":"Lebanon","state":"IL","country":"US","lat":38.60815,"lon":-89.81682},{"name":"Meadville Theological School of Lombard College","city":"Chicago","state":"IL","country":"US","lat":41.88545,"lon":-87.62671},{"name":"Methodist College","city":"Peoria","state":"IL","country":"US","lat":40.7804,"lon":-89.68286},{"name":"Millikin University","city":"Decatur","state":"IL","country":"US","lat":39.84261,"lon":-88.9763},{"name":"Monmouth College","city":"Monmouth","state":"IL","country":"US","lat":40.91482,"lon":-90.63731},{"name":"Moody Bible Institute","city":"Chicago","state":"IL","country":"US","lat":41.89782,"lon":-87.63346},{"name":"National Louis University","city":"Chicago","state":"IL","country":"US","lat":41.88009,"lon":-87.6247},{"name":"National University of Health Sciences","city":"Lombard","state":"IL","country":"US","lat":41.8617,"lon":-88.01317},{"name":"North Central College","city":"Naperville","state":"IL","country":"US","lat":41.77576,"lon":-88.14279},{"name":"North Park University","city":"Chicago","state":"IL","country":"US","lat":41.97527,"lon":-87.70995},{"name":"Northern Baptist Theological Seminary","city":"Lisle","state":"IL","country":"US","lat":41.8091,"lon":-88.05616},{"name":"Northern Illinois University","city":"Dekalb","state":"IL","country":"US","lat":41.93387,"lon":-88.76643},{"name":"Northeastern Illinois University","city":"Chicago","state":"IL","country":"US","lat":41.9804,"lon":-87.71898},{"name":"Olivet Nazarene University","city":"Bourbonnais","state":"IL","country":"US","lat":41.15524,"lon":-87.87516},{"name":"Principia College","city":"Elsah","state":"IL","country":"US","lat":38.94884,"lon":-90.35028},{"name":"Quincy University","city":"Quincy","state":"IL","country":"US","lat":39.9389,"lon":-91.38598},{"name":"Rockford University","city":"Rockford","state":"IL","country":"US","lat":42.27064,"lon":-89.01954},{"name":"Roosevelt University","city":"Chicago","state":"IL","country":"US","lat":41.87606,"lon":-87.62495},{"name":"Dominican University","city":"River Forest","state":"IL","country":"US","lat":41.90268,"lon":-87.823},{"name":"Rush University","city":"Chicago","state":"IL","country":"US","lat":41.87474,"lon":-87.66858},{"name":"Saint Francis Medical Center College of Nursing","city":"Peoria","state":"IL","country":"US","lat":40.70124,"lon":-89.59032},{"name":"University of St Francis","city":"Joliet","state":"IL","country":"US","lat":41.53222,"lon":-88.09606},{"name":"St. John's College-Department of Nursing","city":"Springfield","state":"IL","country":"US","lat":39.8076,"lon":-89.64532},{"name":"Saint Xavier University","city":"Chicago","state":"IL","country":"US","lat":41.7072,"lon":-87.71475},{"name":"University of Illinois Springfield","city":"Springfield","state":"IL","country":"US","lat":39.72952,"lon":-89.6168},{"name":"St. Augustine College","city":"Chicago","state":"IL","country":"US","lat":41.97241,"lon":-87.66281},{"name":"University of Saint Mary of the Lake","city":"Mundelein","state":"IL","country":"US","lat":42.2807,"lon":-88.00026},{"name":"Spertus College","city":"Chicago","state":"IL","country":"US","lat":41.87388,"lon":-87.62479},{"name":"Saint Anthony College of Nursing","city":"Rockford","state":"IL","country":"US","lat":42.31015,"lon":-88.99197},{"name":"Southern Illinois University Edwardsville","city":"Edwardsville","state":"IL","country":"US","lat":38.79395,"lon":-89.99778},{"name":"Southern Illinois University-System Office","city":"Carbondale","state":"IL","country":"US","lat":37.70647,"lon":-89.23222},{"name":"Telshe Yeshiva-Chicago","city":"Chicago","state":"IL","country":"US","lat":41.97554,"lon":-87.71755},{"name":"Trinity Christian College","city":"Palos Heights","state":"IL","country":"US","lat":41.66769,"lon":-87.78397},{"name":"Trinity International University-Illinois","city":"Deerfield","state":"IL","country":"US","lat":42.19794,"lon":-87.88085},{"name":"University of Illinois System Offices","city":"Urbana","state":"IL","country":"US","lat":40.10825,"lon":-88.22823},{"name":"VanderCook College of Music","city":"Chicago","state":"IL","country":"US","lat":41.83683,"lon":-87.62914},{"name":"Western Illinois University","city":"Macomb","state":"IL","country":"US","lat":40.46809,"lon":-90.6869},{"name":"Wheaton College","city":"Wheaton","state":"IL","country":"US","lat":41.87018,"lon":-88.09964},{"name":"Anderson University","city":"Anderson","state":"IN","country":"US","lat":40.11277,"lon":-85.66432},{"name":"Ball State University","city":"Muncie","state":"IN","country":"US","lat":40.20343,"lon":-85.40904},{"name":"Bethel University","city":"Mishawaka","state":"IN","country":"US","lat":41.6784,"lon":-86.19469},{"name":"Butler University","city":"Indianapolis","state":"IN","country":"US","lat":39.8374,"lon":-86.17217},{"name":"Calumet College of Saint Joseph","city":"Whiting","state":"IN","country":"US","lat":41.67101,"lon":-87.49412},{"name":"Christian Theological Seminary","city":"Indianapolis","state":"IN","country":"US","lat":39.83267,"lon":-86.17855},{"name":"Concordia Theological Seminary","city":"Fort Wayne","state":"IN","country":"US","lat":41.13932,"lon":-85.10994},{"name":"DePauw University","city":"Greencastle","state":"IN","country":"US","lat":39.6409,"lon":-86.86036},{"name":"Earlham College","city":"Richmond","state":"IN","country":"US","lat":39.82343,"lon":-84.91504},{"name":"University of Evansville","city":"Evansville","state":"IN","country":"US","lat":37.97155,"lon":-87.53164},{"name":"Franklin College","city":"Franklin","state":"IN","country":"US","lat":39.4783,"lon":-86.04718},{"name":"Goshen College","city":"Goshen","state":"IN","country":"US","lat":41.56358,"lon":-85.82779},{"name":"Grace College and Theological Seminary","city":"Winona Lake","state":"IN","country":"US","lat":41.22595,"lon":-85.81423},{"name":"Hanover College","city":"Hanover","state":"IN","country":"US","lat":38.71564,"lon":-85.46005},{"name":"Holy Cross College","city":"Notre Dame","state":"IN","country":"US","lat":41.699,"lon":-86.25382},{"name":"Huntington University","city":"Huntington","state":"IN","country":"US","lat":40.89815,"lon":-85.49732},{"name":"Purdue University Fort Wayne","city":"Fort Wayne","state":"IN","country":"US","lat":41.11728,"lon":-85.10896},{"name":"Indiana University-Indianapolis","city":"Indianapolis","state":"IN","country":"US","lat":39.77295,"lon":-86.17222},{"name":"University of Indianapolis","city":"Indianapolis","state":"IN","country":"US","lat":39.70957,"lon":-86.13397},{"name":"Indiana Institute of Technology","city":"Fort Wayne","state":"IN","country":"US","lat":41.07836,"lon":-85.11648},{"name":"University of Southern Indiana","city":"Evansville","state":"IN","country":"US","lat":37.96237,"lon":-87.67721},{"name":"Indiana State University","city":"Terre Haute","state":"IN","country":"US","lat":39.46907,"lon":-87.40785},{"name":"Indiana University-Kokomo","city":"Kokomo","state":"IN","country":"US","lat":40.46006,"lon":-86.13205},{"name":"Indiana University-Northwest","city":"Gary","state":"IN","country":"US","lat":41.55732,"lon":-87.33725},{"name":"Indiana University-Southeast","city":"New Albany","state":"IN","country":"US","lat":38.34519,"lon":-85.81999},{"name":"Indiana University-East","city":"Richmond","state":"IN","country":"US","lat":39.86871,"lon":-84.88192},{"name":"Manchester University","city":"North Manchester","state":"IN","country":"US","lat":41.01154,"lon":-85.76225},{"name":"Marian University","city":"Indianapolis","state":"IN","country":"US","lat":39.81323,"lon":-86.20264},{"name":"Indiana Wesleyan University-Marion","city":"Marion","state":"IN","country":"US","lat":40.51794,"lon":-85.6675},{"name":"Martin University","city":"Indianapolis","state":"IN","country":"US","lat":39.79814,"lon":-86.10395},{"name":"Anabaptist Mennonite Biblical Seminary","city":"Elkhart","state":"IN","country":"US","lat":41.65601,"lon":-85.97217},{"name":"Mid-America College of Funeral Service","city":"Jeffersonville","state":"IN","country":"US","lat":38.31209,"lon":-85.7447},{"name":"Oakland City University","city":"Oakland City","state":"IN","country":"US","lat":38.34089,"lon":-87.35144},{"name":"Rose-Hulman Institute of Technology","city":"Terre Haute","state":"IN","country":"US","lat":39.4836,"lon":-87.32675},{"name":"University of Saint Francis-Fort Wayne","city":"Fort Wayne","state":"IN","country":"US","lat":41.0872,"lon":-85.17725},{"name":"Saint Mary-of-the-Woods College","city":"Saint Mary of the Woods","state":"IN","country":"US","lat":39.50855,"lon":-87.46379},{"name":"Saint Meinrad School of Theology","city":"St. Meinrad","state":"IN","country":"US","lat":38.16555,"lon":-86.81039},{"name":"Taylor University","city":"Upland","state":"IN","country":"US","lat":40.45625,"lon":-85.49703},{"name":"Trine University","city":"Angola","state":"IN","country":"US","lat":41.6325,"lon":-85.00801},{"name":"Valparaiso University","city":"Valparaiso","state":"IN","country":"US","lat":41.46224,"lon":-87.04017},{"name":"Vincennes University","city":"Vincennes","state":"IN","country":"US","lat":38.68632,"lon":-87.52341},{"name":"Wabash College","city":"Crawfordsville","state":"IN","country":"US","lat":40.03759,"lon":-86.906},{"name":"Allen College","city":"Waterloo","state":"IA","country":"US","lat":42.53008,"lon":-92.34015},{"name":"Briar Cliff University","city":"Sioux City","state":"IA","country":"US","lat":42.52644,"lon":-96.42844},{"name":"Buena Vista University","city":"Storm Lake","state":"IA","country":"US","lat":42.64225,"lon":-95.20853},{"name":"Central College","city":"Pella","state":"IA","country":"US","lat":41.40154,"lon":-92.9222},{"name":"Clarke University","city":"Dubuque","state":"IA","country":"US","lat":42.50948,"lon":-90.69049},{"name":"Cornell College","city":"Mount Vernon","state":"IA","country":"US","lat":41.92455,"lon":-91.42374},{"name":"Divine Word College","city":"Epworth","state":"IA","country":"US","lat":42.44172,"lon":-90.93458},{"name":"Dordt University","city":"Sioux Center","state":"IA","country":"US","lat":43.08253,"lon":-96.16656},{"name":"Drake University","city":"Des Moines","state":"IA","country":"US","lat":41.60129,"lon":-93.65216},{"name":"University of Dubuque","city":"Dubuque","state":"IA","country":"US","lat":42.49726,"lon":-90.69343},{"name":"Emmaus Bible College","city":"Dubuque","state":"IA","country":"US","lat":42.50831,"lon":-90.70601},{"name":"Faith Baptist Bible College and Theological Seminary","city":"Ankeny","state":"IA","country":"US","lat":41.73708,"lon":-93.62442},{"name":"Graceland University-Lamoni","city":"Lamoni","state":"IA","country":"US","lat":40.61597,"lon":-93.92489},{"name":"Grand View University","city":"Des Moines","state":"IA","country":"US","lat":41.62004,"lon":-93.60095},{"name":"Grinnell College","city":"Grinnell","state":"IA","country":"US","lat":41.74795,"lon":-92.72209},{"name":"Orion Technical College","city":"Davenport","state":"IA","country":"US","lat":41.56056,"lon":-90.52833},{"name":"Loras College","city":"Dubuque","state":"IA","country":"US","lat":42.50391,"lon":-90.67902},{"name":"Luther College","city":"Decorah","state":"IA","country":"US","lat":43.3123,"lon":-91.80281},{"name":"Maharishi International University","city":"Fairfield","state":"IA","country":"US","lat":41.01778,"lon":-91.96731},{"name":"Mercy College of Health Sciences","city":"Des Moines","state":"IA","country":"US","lat":41.59456,"lon":-93.62624},{"name":"Morningside University","city":"Sioux City","state":"IA","country":"US","lat":42.47389,"lon":-96.35946},{"name":"Mount Mercy University","city":"Cedar Rapids","state":"IA","country":"US","lat":42.00193,"lon":-91.65099},{"name":"Ashford University","city":"San Diego","state":"CA","country":"US","lat":32.8273,"lon":-117.14196},{"name":"University of Northern Iowa","city":"Cedar Falls","state":"IA","country":"US","lat":42.51492,"lon":-92.4597},{"name":"Northwestern College","city":"Orange City","state":"IA","country":"US","lat":42.99901,"lon":-96.05877},{"name":"Des Moines University-Osteopathic Medical Center","city":"West Des Moines","state":"IA","country":"US","lat":41.54124,"lon":-93.81733},{"name":"Palmer College of Chiropractic","city":"Davenport","state":"IA","country":"US","lat":41.52902,"lon":-90.57461},{"name":"Saint Ambrose University","city":"Davenport","state":"IA","country":"US","lat":41.54065,"lon":-90.57985},{"name":"St Luke's College","city":"Sioux City","state":"IA","country":"US","lat":42.52008,"lon":-96.40472},{"name":"Simpson College","city":"Indianola","state":"IA","country":"US","lat":41.3655,"lon":-93.56347},{"name":"Upper Iowa University","city":"Fayette","state":"IA","country":"US","lat":42.83828,"lon":-91.79954},{"name":"Waldorf University","city":"Forest City","state":"IA","country":"US","lat":43.26292,"lon":-93.64171},{"name":"Wartburg College","city":"Waverly","state":"IA","country":"US","lat":42.7277,"lon":-92.48339},{"name":"Wartburg Theological Seminary","city":"Dubuque","state":"IA","country":"US","lat":42.48576,"lon":-90.69123},{"name":"William Penn University","city":"Oskaloosa","state":"IA","country":"US","lat":41.31011,"lon":-92.64709},{"name":"Baker University","city":"Baldwin City","state":"KS","country":"US","lat":38.77871,"lon":-95.18735},{"name":"Benedictine College","city":"Atchison","state":"KS","country":"US","lat":39.57308,"lon":-95.11386},{"name":"Bethany College","city":"Lindsborg","state":"KS","country":"US","lat":38.5806,"lon":-97.67367},{"name":"Bethel College-North Newton","city":"North Newton","state":"KS","country":"US","lat":38.07517,"lon":-97.34326},{"name":"Central Christian College of Kansas","city":"McPherson","state":"KS","country":"US","lat":38.35798,"lon":-97.6686},{"name":"Donnelly College","city":"Kansas City","state":"KS","country":"US","lat":39.11235,"lon":-94.64983},{"name":"Emporia State University","city":"Emporia","state":"KS","country":"US","lat":38.41478,"lon":-96.17902},{"name":"Fort Hays State University","city":"Hays","state":"KS","country":"US","lat":38.87216,"lon":-99.3425},{"name":"Barclay College","city":"Haviland","state":"KS","country":"US","lat":37.62012,"lon":-99.10535},{"name":"Friends University","city":"Wichita","state":"KS","country":"US","lat":37.67846,"lon":-97.36705},{"name":"Haskell Indian Nations University","city":"Lawrence","state":"KS","country":"US","lat":38.93883,"lon":-95.23288},{"name":"Hesston College","city":"Hesston","state":"KS","country":"US","lat":38.13456,"lon":-97.43388},{"name":"Concorde Career College-Kansas City","city":"Kansas City","state":"MO","country":"US","lat":38.9361,"lon":-94.60258},{"name":"Kansas Christian College","city":"Overland Park","state":"KS","country":"US","lat":38.99485,"lon":-94.66688},{"name":"Newman University","city":"Wichita","state":"KS","country":"US","lat":37.67264,"lon":-97.37768},{"name":"Kansas State University","city":"Manhattan","state":"KS","country":"US","lat":39.18865,"lon":-96.58108},{"name":"Kansas Wesleyan University","city":"Salina","state":"KS","country":"US","lat":38.81379,"lon":-97.60797},{"name":"Manhattan Christian College","city":"Manhattan","state":"KS","country":"US","lat":39.18481,"lon":-96.57938},{"name":"McPherson College","city":"McPherson","state":"KS","country":"US","lat":38.37142,"lon":-97.643},{"name":"MidAmerica Nazarene University","city":"Olathe","state":"KS","country":"US","lat":38.87524,"lon":-94.78153},{"name":"Ottawa University-Ottawa","city":"Ottawa","state":"KS","country":"US","lat":38.60317,"lon":-95.26419},{"name":"Ottawa University-Kansas City","city":"Overland Park","state":"KS","country":"US","lat":38.93205,"lon":-94.63546},{"name":"Pittsburg State University","city":"Pittsburg","state":"KS","country":"US","lat":37.39207,"lon":-94.70247},{"name":"University of Saint Mary","city":"Leavenworth","state":"KS","country":"US","lat":39.2794,"lon":-94.90674},{"name":"Southwestern College","city":"Winfield","state":"KS","country":"US","lat":37.24861,"lon":-96.9754},{"name":"Sterling College","city":"Sterling","state":"KS","country":"US","lat":38.21994,"lon":-98.20864},{"name":"Tabor College","city":"Hillsboro","state":"KS","country":"US","lat":38.34858,"lon":-97.19977},{"name":"Washburn University","city":"Topeka","state":"KS","country":"US","lat":39.03378,"lon":-95.70222},{"name":"Wichita State University","city":"Wichita","state":"KS","country":"US","lat":37.71888,"lon":-97.29236},{"name":"Alice Lloyd College","city":"Pippa Passes","state":"KY","country":"US","lat":37.33509,"lon":-82.87507},{"name":"Asbury University","city":"Wilmore","state":"KY","country":"US","lat":37.86203,"lon":-84.66261},{"name":"Asbury Theological Seminary","city":"Wilmore","state":"KY","country":"US","lat":37.86156,"lon":-84.66013},{"name":"Bellarmine University","city":"Louisville","state":"KY","country":"US","lat":38.21928,"lon":-85.705},{"name":"Berea College","city":"Berea","state":"KY","country":"US","lat":37.57202,"lon":-84.29289},{"name":"Brescia University","city":"Owensboro","state":"KY","country":"US","lat":37.76904,"lon":-87.11164},{"name":"Campbellsville University","city":"Campbellsville","state":"KY","country":"US","lat":37.34334,"lon":-85.34894},{"name":"Centre College","city":"Danville","state":"KY","country":"US","lat":37.64571,"lon":-84.77939},{"name":"Clear Creek Baptist Bible College","city":"Pineville","state":"KY","country":"US","lat":36.72524,"lon":-83.7277},{"name":"Galen College of Nursing-Louisville","city":"Louisville","state":"KY","country":"US","lat":38.28133,"lon":-85.49904},{"name":"University of the Cumberlands","city":"Williamsburg","state":"KY","country":"US","lat":36.73705,"lon":-84.16165},{"name":"Eastern Kentucky University","city":"Richmond","state":"KY","country":"US","lat":37.74085,"lon":-84.3008},{"name":"Frontier Nursing University","city":"Versailles","state":"KY","country":"US","lat":38.05102,"lon":-84.69279},{"name":"Georgetown College","city":"Georgetown","state":"KY","country":"US","lat":38.20761,"lon":-84.55377},{"name":"American National University-Pikeville","city":"Pikeville","state":"KY","country":"US","lat":37.47242,"lon":-82.52821},{"name":"Kentucky Mountain Bible College","city":"Jackson","state":"KY","country":"US","lat":37.60344,"lon":-83.43877},{"name":"Kentucky State University","city":"Frankfort","state":"KY","country":"US","lat":38.20143,"lon":-84.8554},{"name":"Kentucky Wesleyan College","city":"Owensboro","state":"KY","country":"US","lat":37.74449,"lon":-87.11966},{"name":"Kentucky Christian University","city":"Grayson","state":"KY","country":"US","lat":38.33881,"lon":-82.94556},{"name":"Lexington Theological Seminary","city":"Lexington","state":"KY","country":"US","lat":37.99633,"lon":-84.52608},{"name":"Lindsey Wilson College","city":"Columbia","state":"KY","country":"US","lat":37.1015,"lon":-85.3},{"name":"University of Louisville","city":"Louisville","state":"KY","country":"US","lat":38.21686,"lon":-85.76041},{"name":"Louisville Presbyterian Theological Seminary","city":"Louisville","state":"KY","country":"US","lat":38.23706,"lon":-85.68641},{"name":"Midway University","city":"Midway","state":"KY","country":"US","lat":38.14613,"lon":-84.67814},{"name":"Morehead State University","city":"Morehead","state":"KY","country":"US","lat":38.18677,"lon":-83.43402},{"name":"Murray State University","city":"Murray","state":"KY","country":"US","lat":36.61242,"lon":-88.32363},{"name":"Northern Kentucky University","city":"Highland Heights","state":"KY","country":"US","lat":39.02971,"lon":-84.46348},{"name":"University of Pikeville","city":"Pikeville","state":"KY","country":"US","lat":37.47923,"lon":-82.52106},{"name":"The Southern Baptist Theological Seminary","city":"Louisville","state":"KY","country":"US","lat":38.24822,"lon":-85.68765},{"name":"Spalding University","city":"Louisville","state":"KY","country":"US","lat":38.24241,"lon":-85.75772},{"name":"Sullivan University","city":"Louisville","state":"KY","country":"US","lat":38.21282,"lon":-85.67049},{"name":"Thomas More University","city":"Crestview Hills","state":"KY","country":"US","lat":39.02296,"lon":-84.56892},{"name":"Transylvania University","city":"Lexington","state":"KY","country":"US","lat":38.05298,"lon":-84.4932},{"name":"Union Commonwealth University","city":"Barbourville","state":"KY","country":"US","lat":36.87087,"lon":-83.88848},{"name":"Western Kentucky University","city":"Bowling Green","state":"KY","country":"US","lat":36.98504,"lon":-86.45683},{"name":"Centenary College of Louisiana","city":"Shreveport","state":"LA","country":"US","lat":32.48333,"lon":-93.73083},{"name":"Dillard University","city":"New Orleans","state":"LA","country":"US","lat":29.99659,"lon":-90.06464},{"name":"Grambling State University","city":"Grambling","state":"LA","country":"US","lat":32.5238,"lon":-92.71325},{"name":"Louisiana State University Health Sciences Center-New Orleans","city":"New Orleans","state":"LA","country":"US","lat":29.95727,"lon":-90.08315},{"name":"Louisiana State University-Alexandria","city":"Alexandria","state":"LA","country":"US","lat":31.17862,"lon":-92.41441},{"name":"Louisiana State University-Shreveport","city":"Shreveport","state":"LA","country":"US","lat":32.42847,"lon":-93.70561},{"name":"Louisiana Christian University","city":"Pineville","state":"LA","country":"US","lat":31.32453,"lon":-92.42597},{"name":"Louisiana Tech University","city":"Ruston","state":"LA","country":"US","lat":32.5283,"lon":-92.64996},{"name":"Loyola University New Orleans","city":"New Orleans","state":"LA","country":"US","lat":29.93614,"lon":-90.12042},{"name":"McNeese State University","city":"Lake Charles","state":"LA","country":"US","lat":30.17819,"lon":-93.21722},{"name":"University of New Orleans","city":"New Orleans","state":"LA","country":"US","lat":30.0277,"lon":-90.06714},{"name":"New Orleans Baptist Theological Seminary","city":"New Orleans","state":"LA","country":"US","lat":30.00434,"lon":-90.04344},{"name":"Nicholls State University","city":"Thibodaux","state":"LA","country":"US","lat":29.79449,"lon":-90.80157},{"name":"University of Louisiana at Monroe","city":"Monroe","state":"LA","country":"US","lat":32.52775,"lon":-92.07374},{"name":"Northwestern State University of Louisiana","city":"Natchitoches","state":"LA","country":"US","lat":31.75067,"lon":-93.0978},{"name":"University of Holy Cross","city":"New Orleans","state":"LA","country":"US","lat":29.912,"lon":-89.99445},{"name":"Franciscan Missionaries of Our Lady University","city":"Baton Rouge","state":"LA","country":"US","lat":30.40138,"lon":-91.11059},{"name":"Saint Joseph Seminary College","city":"St. Benedict","state":"LA","country":"US","lat":30.52678,"lon":-90.11362},{"name":"Southern University-Board and System","city":"Baton Rouge","state":"LA","country":"US","lat":30.52152,"lon":-91.19663},{"name":"Southeastern Louisiana University","city":"Hammond","state":"LA","country":"US","lat":30.51465,"lon":-90.46868},{"name":"Southern University and A & M College","city":"Baton Rouge","state":"LA","country":"US","lat":30.52456,"lon":-91.19011},{"name":"Southern University at New Orleans","city":"New Orleans","state":"LA","country":"US","lat":30.02616,"lon":-90.04491},{"name":"University of Louisiana at Lafayette","city":"Lafayette","state":"LA","country":"US","lat":30.21219,"lon":-92.02017},{"name":"Xavier University of Louisiana","city":"New Orleans","state":"LA","country":"US","lat":29.96416,"lon":-90.10731},{"name":"College of the Atlantic","city":"Bar Harbor","state":"ME","country":"US","lat":44.39526,"lon":-68.22152},{"name":"Bates College","city":"Lewiston","state":"ME","country":"US","lat":44.1053,"lon":-70.20333},{"name":"Beal University","city":"Bangor","state":"ME","country":"US","lat":44.78646,"lon":-68.78543},{"name":"Maine College of Health Professions","city":"Lewiston","state":"ME","country":"US","lat":44.10046,"lon":-70.21732},{"name":"University of Maine at Augusta","city":"Augusta","state":"ME","country":"US","lat":44.33775,"lon":-69.7964},{"name":"University of Maine at Farmington","city":"Farmington","state":"ME","country":"US","lat":44.66691,"lon":-70.14712},{"name":"University of Maine at Fort Kent","city":"Fort Kent","state":"ME","country":"US","lat":47.25039,"lon":-68.58932},{"name":"University of Maine","city":"Orono","state":"ME","country":"US","lat":44.89926,"lon":-68.66933},{"name":"University of Maine-System Central Office","city":"Orono","state":"ME","country":"US","lat":44.89639,"lon":-68.66988},{"name":"Maine Maritime Academy","city":"Castine","state":"ME","country":"US","lat":44.38965,"lon":-68.80435},{"name":"University of Maine at Presque Isle","city":"Presque Isle","state":"ME","country":"US","lat":46.67229,"lon":-68.01634},{"name":"University of New England","city":"Biddeford","state":"ME","country":"US","lat":43.45859,"lon":-70.38535},{"name":"Maine College of Art & Design","city":"Portland","state":"ME","country":"US","lat":43.65574,"lon":-70.26102},{"name":"Saint Joseph's College of Maine","city":"Standish","state":"ME","country":"US","lat":43.82631,"lon":-70.48337},{"name":"University of Southern Maine","city":"Portland","state":"ME","country":"US","lat":43.66286,"lon":-70.27425},{"name":"Thomas College","city":"Waterville","state":"ME","country":"US","lat":44.52491,"lon":-69.66473},{"name":"Unity Environmental University","city":"New Gloucester","state":"ME","country":"US","lat":43.90575,"lon":-70.25728},{"name":"University of Baltimore","city":"Baltimore","state":"MD","country":"US","lat":39.30583,"lon":-76.61659},{"name":"Bowie State University","city":"Bowie","state":"MD","country":"US","lat":39.01819,"lon":-76.75972},{"name":"Capitol Technology University","city":"Laurel","state":"MD","country":"US","lat":39.04667,"lon":-76.85023},{"name":"Washington Adventist University","city":"Takoma Park","state":"MD","country":"US","lat":38.98635,"lon":-77.00061},{"name":"Coppin State University","city":"Baltimore","state":"MD","country":"US","lat":39.31126,"lon":-76.65869},{"name":"Frostburg State University","city":"Frostburg","state":"MD","country":"US","lat":39.65092,"lon":-78.93429},{"name":"Goucher College","city":"Baltimore","state":"MD","country":"US","lat":39.41018,"lon":-76.59484},{"name":"Hood College","city":"Frederick","state":"MD","country":"US","lat":39.42063,"lon":-77.41905},{"name":"Loyola University Maryland","city":"Baltimore","state":"MD","country":"US","lat":39.34636,"lon":-76.62187},{"name":"University of Maryland Global Campus","city":"Adelphi","state":"MD","country":"US","lat":38.91271,"lon":-76.84758},{"name":"University of Maryland, Baltimore","city":"Baltimore","state":"MD","country":"US","lat":39.28686,"lon":-76.62398},{"name":"Maryland Institute College of Art","city":"Baltimore","state":"MD","country":"US","lat":39.30879,"lon":-76.62103},{"name":"University of Maryland Eastern Shore","city":"Princess Anne","state":"MD","country":"US","lat":38.20739,"lon":-75.68685},{"name":"Morgan State University","city":"Baltimore","state":"MD","country":"US","lat":39.34416,"lon":-76.58557},{"name":"Mount St. Mary's University","city":"Emmitsburg","state":"MD","country":"US","lat":39.68171,"lon":-77.35189},{"name":"Ner Israel Rabbinical College","city":"Baltimore","state":"MD","country":"US","lat":39.38802,"lon":-76.75353},{"name":"Notre Dame of Maryland University","city":"Baltimore","state":"MD","country":"US","lat":39.35061,"lon":-76.61974},{"name":"Salisbury University","city":"Salisbury","state":"MD","country":"US","lat":38.34648,"lon":-75.60482},{"name":"St. Mary's College of Maryland","city":"St. Mary's City","state":"MD","country":"US","lat":38.18805,"lon":-76.43099},{"name":"St. John's College","city":"Annapolis","state":"MD","country":"US","lat":38.9816,"lon":-76.49136},{"name":"Towson University","city":"Towson","state":"MD","country":"US","lat":39.39362,"lon":-76.61116},{"name":"Maryland University of Integrative Health","city":"Laurel","state":"MD","country":"US","lat":39.16587,"lon":-76.88802},{"name":"University System of Maryland","city":"Baltimore","state":"MD","country":"US","lat":39.28608,"lon":-76.60548},{"name":"United States Naval Academy","city":"Annapolis","state":"MD","country":"US","lat":38.98051,"lon":-76.48169},{"name":"Stevenson University","city":"Owings Mills","state":"MD","country":"US","lat":39.42641,"lon":-76.77581},{"name":"Washington College","city":"Chestertown","state":"MD","country":"US","lat":39.21733,"lon":-76.06878},{"name":"McDaniel College","city":"Westminster","state":"MD","country":"US","lat":39.58423,"lon":-77.00199},{"name":"Hult International Business School","city":"Cambridge","state":"MA","country":"US","lat":42.36997,"lon":-71.07064},{"name":"American International College","city":"Springfield","state":"MA","country":"US","lat":42.11235,"lon":-72.55834},{"name":"Anna Maria College","city":"Paxton","state":"MA","country":"US","lat":42.33054,"lon":-71.91896},{"name":"Assumption University","city":"Worcester","state":"MA","country":"US","lat":42.29423,"lon":-71.82899},{"name":"Babson College","city":"Wellesley","state":"MA","country":"US","lat":42.29702,"lon":-71.26406},{"name":"Boston Baptist College","city":"Boston","state":"MA","country":"US","lat":42.25404,"lon":-71.1103},{"name":"Bay Path University","city":"Longmeadow","state":"MA","country":"US","lat":42.05509,"lon":-72.58338},{"name":"Bentley University","city":"Waltham","state":"MA","country":"US","lat":42.386,"lon":-71.22284},{"name":"Berklee College of Music","city":"Boston","state":"MA","country":"US","lat":42.34665,"lon":-71.0894},{"name":"Boston Architectural College","city":"Boston","state":"MA","country":"US","lat":42.34847,"lon":-71.08579},{"name":"Boston Graduate School of Psychoanalysis Inc","city":"Brookline","state":"MA","country":"US","lat":42.33912,"lon":-71.13315},{"name":"Bridgewater State University","city":"Bridgewater","state":"MA","country":"US","lat":41.98749,"lon":-70.97455},{"name":"Cambridge College","city":"Boston","state":"MA","country":"US","lat":42.38109,"lon":-71.07265},{"name":"Laboure College of Healthcare","city":"Milton","state":"MA","country":"US","lat":42.26087,"lon":-71.05828},{"name":"Clark University","city":"Worcester","state":"MA","country":"US","lat":42.24999,"lon":-71.82336},{"name":"Conway School of Landscape Design","city":"Northampton","state":"MA","country":"US","lat":42.31386,"lon":-72.64875},{"name":"Curry College","city":"Milton","state":"MA","country":"US","lat":42.23806,"lon":-71.11654},{"name":"Dean College","city":"Franklin","state":"MA","country":"US","lat":42.08563,"lon":-71.39781},{"name":"Eastern Nazarene College","city":"Quincy","state":"MA","country":"US","lat":42.27123,"lon":-71.01108},{"name":"Emerson College","city":"Boston","state":"MA","country":"US","lat":42.3522,"lon":-71.06538},{"name":"Emmanuel College","city":"Boston","state":"MA","country":"US","lat":42.3406,"lon":-71.10363},{"name":"Endicott College","city":"Beverly","state":"MA","country":"US","lat":42.5533,"lon":-70.84085},{"name":"Fisher College","city":"Boston","state":"MA","country":"US","lat":42.35525,"lon":-71.07412},{"name":"Fitchburg State University","city":"Fitchburg","state":"MA","country":"US","lat":42.5883,"lon":-71.78967},{"name":"Framingham State University","city":"Framingham","state":"MA","country":"US","lat":42.29712,"lon":-71.43757},{"name":"Benjamin Franklin Cummings Institute of Technology","city":"Boston","state":"MA","country":"US","lat":42.34602,"lon":-71.07023},{"name":"Gordon College","city":"Wenham","state":"MA","country":"US","lat":42.59057,"lon":-70.82151},{"name":"Gordon-Conwell Theological Seminary","city":"South Hamilton","state":"MA","country":"US","lat":42.61348,"lon":-70.84639},{"name":"Hampshire College","city":"Amherst","state":"MA","country":"US","lat":42.32585,"lon":-72.53147},{"name":"Hebrew College","city":"Newton","state":"MA","country":"US","lat":42.33572,"lon":-71.24123},{"name":"Hellenic College-Holy Cross Greek Orthodox School of Theology","city":"Brookline","state":"MA","country":"US","lat":42.31702,"lon":-71.12942},{"name":"Lasell University","city":"Newton","state":"MA","country":"US","lat":42.34215,"lon":-71.24347},{"name":"Lesley University","city":"Cambridge","state":"MA","country":"US","lat":42.38012,"lon":-71.1173},{"name":"Longy School of Music of Bard College","city":"Cambridge","state":"MA","country":"US","lat":42.37866,"lon":-71.12348},{"name":"University of Massachusetts-Lowell","city":"Lowell","state":"MA","country":"US","lat":42.65286,"lon":-71.32681},{"name":"University of Massachusetts-Boston","city":"Boston","state":"MA","country":"US","lat":42.31288,"lon":-71.03687},{"name":"MCPHS University","city":"Boston","state":"MA","country":"US","lat":42.33682,"lon":-71.10124},{"name":"University of Massachusetts-Central Office","city":"Boston","state":"MA","country":"US","lat":42.35849,"lon":-71.06076},{"name":"Massachusetts College of Art and Design","city":"Boston","state":"MA","country":"US","lat":42.33686,"lon":-71.09928},{"name":"Massachusetts Maritime Academy","city":"Buzzards Bay","state":"MA","country":"US","lat":41.73907,"lon":-70.62408},{"name":"University of Massachusetts Chan Medical School","city":"Worcester","state":"MA","country":"US","lat":42.278,"lon":-71.76214},{"name":"William James College","city":"Newton","state":"MA","country":"US","lat":42.295,"lon":-71.20326},{"name":"Merrimack College","city":"North Andover","state":"MA","country":"US","lat":42.66834,"lon":-71.12422},{"name":"MGH Institute of Health Professions","city":"Boston","state":"MA","country":"US","lat":42.37502,"lon":-71.054},{"name":"Montserrat College of Art","city":"Beverly","state":"MA","country":"US","lat":42.55021,"lon":-70.87613},{"name":"The New England Conservatory of Music","city":"Boston","state":"MA","country":"US","lat":42.34095,"lon":-71.08629},{"name":"New England College of Optometry","city":"Boston","state":"MA","country":"US","lat":42.35185,"lon":-71.08683},{"name":"New England Law-Boston","city":"Boston","state":"MA","country":"US","lat":42.35083,"lon":-71.0665},{"name":"Nichols College","city":"Dudley","state":"MA","country":"US","lat":42.04403,"lon":-71.93028},{"name":"Massachusetts College of Liberal Arts","city":"North Adams","state":"MA","country":"US","lat":42.69136,"lon":-73.10282},{"name":"College of Our Lady of the Elms","city":"Chicopee","state":"MA","country":"US","lat":42.14178,"lon":-72.60154},{"name":"Pope St John XXIII National Seminary","city":"Weston","state":"MA","country":"US","lat":42.33941,"lon":-71.31106},{"name":"Quincy College","city":"Quincy","state":"MA","country":"US","lat":42.25242,"lon":-71.00348},{"name":"Regis College","city":"Weston","state":"MA","country":"US","lat":42.35129,"lon":-71.31056},{"name":"Saint John's Seminary","city":"Brighton","state":"MA","country":"US","lat":42.34415,"lon":-71.162},{"name":"Salem State University","city":"Salem","state":"MA","country":"US","lat":42.50357,"lon":-70.89023},{"name":"Simmons University","city":"Boston","state":"MA","country":"US","lat":42.3393,"lon":-71.09997},{"name":"Bard College at Simon's Rock","city":"Great Barrington","state":"MA","country":"US","lat":42.2088,"lon":-73.3792},{"name":"Springfield College","city":"Springfield","state":"MA","country":"US","lat":42.1022,"lon":-72.55665},{"name":"University of Massachusetts-Dartmouth","city":"North Dartmouth","state":"MA","country":"US","lat":41.62869,"lon":-71.00455},{"name":"Stonehill College","city":"Easton","state":"MA","country":"US","lat":42.05905,"lon":-71.08063},{"name":"Suffolk University","city":"Boston","state":"MA","country":"US","lat":42.35795,"lon":-71.06092},{"name":"Wentworth Institute of Technology","city":"Boston","state":"MA","country":"US","lat":42.33663,"lon":-71.09498},{"name":"Western New England University","city":"Springfield","state":"MA","country":"US","lat":42.11502,"lon":-72.52047},{"name":"Westfield State University","city":"Westfield","state":"MA","country":"US","lat":42.1327,"lon":-72.7965},{"name":"Wheaton College (Massachusetts)","city":"Norton","state":"MA","country":"US","lat":41.96664,"lon":-71.18398},{"name":"Worcester State University","city":"Worcester","state":"MA","country":"US","lat":42.26753,"lon":-71.84402},{"name":"Adrian College","city":"Adrian","state":"MI","country":"US","lat":41.89859,"lon":-84.06148},{"name":"Albion College","city":"Albion","state":"MI","country":"US","lat":42.24505,"lon":-84.74564},{"name":"Alma College","city":"Alma","state":"MI","country":"US","lat":43.38004,"lon":-84.67205},{"name":"Alpena Community College","city":"Alpena","state":"MI","country":"US","lat":45.08165,"lon":-83.44507},{"name":"Andrews University","city":"Berrien Springs","state":"MI","country":"US","lat":41.96386,"lon":-86.35582},{"name":"Aquinas College","city":"Grand Rapids","state":"MI","country":"US","lat":42.96019,"lon":-85.62878},{"name":"Baker College","city":"Owosso","state":"MI","country":"US","lat":42.9848,"lon":-84.1724},{"name":"Calvin University","city":"Grand Rapids","state":"MI","country":"US","lat":42.92992,"lon":-85.58755},{"name":"Calvin Theological Seminary","city":"Grand Rapids","state":"MI","country":"US","lat":42.92795,"lon":-85.58644},{"name":"Michigan School of Psychology","city":"Farmington Hills","state":"MI","country":"US","lat":42.49143,"lon":-83.35958},{"name":"Central Michigan University","city":"Mount Pleasant","state":"MI","country":"US","lat":43.5912,"lon":-84.77525},{"name":"Cleary University","city":"Howell","state":"MI","country":"US","lat":42.58664,"lon":-83.87999},{"name":"Concordia University Ann Arbor","city":"Ann Arbor","state":"MI","country":"US","lat":42.27316,"lon":-83.68268},{"name":"Cranbrook Academy of Art","city":"Bloomfield Hills","state":"MI","country":"US","lat":42.5689,"lon":-83.25068},{"name":"College for Creative Studies","city":"Detroit","state":"MI","country":"US","lat":42.36184,"lon":-83.06235},{"name":"Davenport University","city":"Grand Rapids","state":"MI","country":"US","lat":42.85001,"lon":-85.53352},{"name":"University of Detroit Mercy","city":"Detroit","state":"MI","country":"US","lat":42.41422,"lon":-83.13916},{"name":"Eastern Michigan University","city":"Ypsilanti","state":"MI","country":"US","lat":42.25167,"lon":-83.62744},{"name":"Ferris State University","city":"Big Rapids","state":"MI","country":"US","lat":43.68772,"lon":-85.48193},{"name":"Kettering University","city":"Flint","state":"MI","country":"US","lat":43.01247,"lon":-83.71282},{"name":"Grace Christian University","city":"Wyoming","state":"MI","country":"US","lat":42.91954,"lon":-85.69208},{"name":"Cornerstone University","city":"Grand Rapids","state":"MI","country":"US","lat":42.97997,"lon":-85.59533},{"name":"Grand Valley State University","city":"Allendale","state":"MI","country":"US","lat":42.963,"lon":-85.88983},{"name":"Great Lakes Christian College","city":"Lansing","state":"MI","country":"US","lat":42.75425,"lon":-84.63871},{"name":"Henry Ford College","city":"Dearborn","state":"MI","country":"US","lat":42.32464,"lon":-83.23606},{"name":"Hillsdale College","city":"Hillsdale","state":"MI","country":"US","lat":41.93368,"lon":-84.6332},{"name":"Jackson College","city":"Jackson","state":"MI","country":"US","lat":42.16483,"lon":-84.40394},{"name":"Kalamazoo College","city":"Kalamazoo","state":"MI","country":"US","lat":42.29079,"lon":-85.60186},{"name":"Lake Superior State University","city":"Sault Ste Marie","state":"MI","country":"US","lat":46.49285,"lon":-84.36557},{"name":"Lawrence Technological University","city":"Southfield","state":"MI","country":"US","lat":42.47407,"lon":-83.25003},{"name":"Madonna University","city":"Livonia","state":"MI","country":"US","lat":42.38432,"lon":-83.40472},{"name":"Rochester University","city":"Rochester Hills","state":"MI","country":"US","lat":42.66752,"lon":-83.14496},{"name":"Michigan Technological University","city":"Houghton","state":"MI","country":"US","lat":47.11866,"lon":-88.54809},{"name":"University of Michigan-Dearborn","city":"Dearborn","state":"MI","country":"US","lat":42.31729,"lon":-83.23142},{"name":"University of Michigan-Flint","city":"Flint","state":"MI","country":"US","lat":43.01875,"lon":-83.69028},{"name":"Northern Michigan University","city":"Marquette","state":"MI","country":"US","lat":46.55975,"lon":-87.40657},{"name":"Northwestern Michigan College","city":"Traverse City","state":"MI","country":"US","lat":44.76544,"lon":-85.58552},{"name":"Northwood University","city":"Midland","state":"MI","country":"US","lat":43.62872,"lon":-84.27682},{"name":"Oakland University","city":"Rochester Hills","state":"MI","country":"US","lat":42.67457,"lon":-83.21642},{"name":"The University of Olivet","city":"Olivet","state":"MI","country":"US","lat":42.44289,"lon":-84.92389},{"name":"Kuyper College","city":"Grand Rapids","state":"MI","country":"US","lat":43.02195,"lon":-85.59266},{"name":"Sacred Heart Major Seminary","city":"Detroit","state":"MI","country":"US","lat":42.37525,"lon":-83.11168},{"name":"Saginaw Valley State University","city":"University Center","state":"MI","country":"US","lat":43.51176,"lon":-83.96427},{"name":"Schoolcraft Community College District","city":"Livonia","state":"MI","country":"US","lat":42.41928,"lon":-83.43096},{"name":"Siena Heights University","city":"Adrian","state":"MI","country":"US","lat":41.90562,"lon":-84.01884},{"name":"Spring Arbor University","city":"Spring Arbor","state":"MI","country":"US","lat":42.20657,"lon":-84.55607},{"name":"Thomas M Cooley Law School","city":"Lansing","state":"MI","country":"US","lat":42.731,"lon":-84.55443},{"name":"Walsh College","city":"Troy","state":"MI","country":"US","lat":42.57389,"lon":-83.1472},{"name":"Western Michigan University","city":"Kalamazoo","state":"MI","country":"US","lat":42.28219,"lon":-85.61376},{"name":"Western Theological Seminary","city":"Holland","state":"MI","country":"US","lat":42.78625,"lon":-86.10324},{"name":"Academy College","city":"Bloomington","state":"MN","country":"US","lat":44.85572,"lon":-93.29981},{"name":"Augsburg University","city":"Minneapolis","state":"MN","country":"US","lat":44.96631,"lon":-93.24044},{"name":"Bemidji State University","city":"Bemidji","state":"MN","country":"US","lat":47.48234,"lon":-94.87412},{"name":"Bethany Lutheran College","city":"Mankato","state":"MN","country":"US","lat":44.16665,"lon":-93.9908},{"name":"Bethel University","city":"Saint Paul","state":"MN","country":"US","lat":45.05765,"lon":-93.16166},{"name":"Concordia College at Moorhead","city":"Moorhead","state":"MN","country":"US","lat":46.86248,"lon":-96.76749},{"name":"Concordia University-Saint Paul","city":"Saint Paul","state":"MN","country":"US","lat":44.94976,"lon":-93.15486},{"name":"Martin Luther College","city":"New Ulm","state":"MN","country":"US","lat":44.30526,"lon":-94.47233},{"name":"Gustavus Adolphus College","city":"Saint Peter","state":"MN","country":"US","lat":44.32363,"lon":-93.9722},{"name":"Hamline University","city":"Saint Paul","state":"MN","country":"US","lat":44.96625,"lon":-93.16448},{"name":"Hazelden Betty Ford Graduate School","city":"Center City","state":"MN","country":"US","lat":45.37532,"lon":-92.80528},{"name":"Luther Seminary","city":"Saint Paul","state":"MN","country":"US","lat":44.98463,"lon":-93.19642},{"name":"Minnesota State University-Mankato","city":"Mankato","state":"MN","country":"US","lat":44.14671,"lon":-93.99945},{"name":"Mayo Clinic College of Medicine and Science","city":"Rochester","state":"MN","country":"US","lat":44.02215,"lon":-92.46643},